{"keys": ["", "214", "173", "216", "128", "240", "225", "1", "226", "177", "111", "47", "109", "188", "212", "11", "70", "213", "193"], "data": {"11": {"REAL": 15.69373, "INDEX": 3.16150037201, "NAME": "Barbados", "AREA": 43, "REGION": 19, "LON": -59.559, "SUBREGION": 29, "ISO3": "BRB", "ISO2": "BB", "FIPS": "BB", "UN": 52, "LAT": 13.153, "POP2005": 291933}, "216": {"REAL": -999.99, "INDEX": -999.99, "NAME": "United States Virgin Islands", "AREA": 35, "REGION": 19, "LON": -64.785, "SUBREGION": 29, "ISO3": "VIR", "ISO2": "VI", "FIPS": "VQ", "UN": 850, "LAT": 17.741, "POP2005": 111408}, "214": {"REAL": -999.99, "INDEX": -999.99, "NAME": "British Virgin Islands", "AREA": 15, "REGION": 19, "LON": -64.39, "SUBREGION": 29, "ISO3": "VGB", "ISO2": "VG", "FIPS": "VI", "UN": 92, "LAT": 18.483, "POP2005": 22016}, "212": {"REAL": 21.95772, "INDEX": 4.42338054424, "NAME": "Saint Vincent and the Grenadines", "AREA": 39, "REGION": 19, "LON": -61.194, "SUBREGION": 29, "ISO3": "VCT", "ISO2": "VC", "FIPS": "VC", "UN": 670, "LAT": 13.248, "POP2005": 119137}, "213": {"REAL": 3.67944, "INDEX": 0.741222827766, "NAME": "Venezuela", "AREA": 88205, "REGION": 19, "LON": -66.166, "SUBREGION": 5, "ISO3": "VEN", "ISO2": "VE", "FIPS": "VE", "UN": 862, "LAT": 7.125, "POP2005": 26725573}, "47": {"REAL": 10.43414, "INDEX": 2.10195648145, "NAME": "Dominica", "AREA": 75, "REGION": 19, "LON": -61.356, "SUBREGION": 29, "ISO3": "DMA", "ISO2": "DM", "FIPS": "DO", "UN": 212, "LAT": 15.475, "POP2005": 67827}, "193": {"REAL": 7.457944, "INDEX": 1.50240208863, "NAME": "Trinidad and Tobago", "AREA": 513, "REGION": 19, "LON": -61.253, "SUBREGION": 29, "ISO3": "TTO", "ISO2": "TT", "FIPS": "TD", "UN": 780, "LAT": 10.468, "POP2005": 1323722}, "1": {"REAL": 32.30729, "INDEX": 6, "NAME": "Antigua and Barbuda", "AREA": 44, "REGION": 19, "LON": -61.783, "SUBREGION": 29, "ISO3": "ATG", "ISO2": "AG", "FIPS": "AC", "UN": 28, "LAT": 17.078, "POP2005": 83039}, "177": {"REAL": 22.11966, "INDEX": 4.45600334138, "NAME": "Saint Kitts and Nevis", "AREA": 36, "REGION": 19, "LON": -62.769, "SUBREGION": 29, "ISO3": "KNA", "ISO2": "KN", "FIPS": "SC", "UN": 659, "LAT": 17.34, "POP2005": 49138}, "109": {"REAL": -999.99, "INDEX": -999.99, "NAME": "Martinique", "AREA": 106, "REGION": 19, "LON": -61.021, "SUBREGION": 29, "ISO3": "MTQ", "ISO2": "MQ", "FIPS": "MB", "UN": 474, "LAT": 14.653, "POP2005": 395896}, "111": {"REAL": -999.99, "INDEX": -999.99, "NAME": "Montserrat", "AREA": 10, "REGION": 19, "LON": -62.187, "SUBREGION": 29, "ISO3": "MSR", "ISO2": "MS", "FIPS": "MH", "UN": 500, "LAT": 16.736, "POP2005": 5628}, "240": {"REAL": -999.99, "INDEX": -999.99, "NAME": "Saint Martin", "AREA": 0, "REGION": 19, "LON": -63.041, "SUBREGION": 29, "ISO3": "MAF", "ISO2": "MF", "FIPS": "RN", "UN": 663, "LAT": 18.094, "POP2005": 0}, "70": {"REAL": 21.74678, "INDEX": 4.38088670189, "NAME": "Grenada", "AREA": 34, "REGION": 19, "LON": -61.678, "SUBREGION": 29, "ISO3": "GRD", "ISO2": "GD", "FIPS": "GJ", "UN": 308, "LAT": 12.118, "POP2005": 105237}, "128": {"REAL": -999.99, "INDEX": -999.99, "NAME": "Anguilla", "AREA": 0, "REGION": 19, "LON": -63.032, "SUBREGION": 29, "ISO3": "AIA", "ISO2": "AI", "FIPS": "AV", "UN": 660, "LAT": 18.237, "POP2005": 12256}, "226": {"REAL": -999.99, "INDEX": -999.99, "NAME": "Netherlands Antilles", "AREA": 80, "REGION": 19, "LON": -68.87, "SUBREGION": 29, "ISO3": "ANT", "ISO2": "AN", "FIPS": "NT", "UN": 530, "LAT": 12.123, "POP2005": 186392}, "188": {"REAL": 8.024293, "INDEX": 1.61649303923, "NAME": "Saint Lucia", "AREA": 61, "REGION": 19, "LON": -60.969, "SUBREGION": 29, "ISO3": "LCA", "ISO2": "LC", "FIPS": "ST", "UN": 662, "LAT": 13.898, "POP2005": 16124}, "173": {"REAL": 11.30101, "INDEX": 2.27658735808, "NAME": "Puerto Rico", "AREA": 887, "REGION": 19, "LON": -66.466, "SUBREGION": 29, "ISO3": "PRI", "ISO2": "PR", "FIPS": "RQ", "UN": 630, "LAT": 18.221, "POP2005": 3946779}, "225": {"REAL": -999.99, "INDEX": -999.99, "NAME": "Guadeloupe", "AREA": 169, "REGION": 19, "LON": -61.441, "SUBREGION": 29, "ISO3": "GLP", "ISO2": "GP", "FIPS": "GP", "UN": 312, "LAT": 16.286, "POP2005": 438403}}, "grid": ["                                                                ", "                                                                ", "                                                                ", "                                                                ", "                                                                ", "                                                                ", "                                                                ", "                                                                ", "                                                                ", "                                                                ", "                                                                ", "                                                                ", "                                                                ", "                                                                ", "                                                                ", "                                                                ", "                                                                ", "                                                                ", "                                                                ", "                  !                                             ", "                                                                ", "  #########     !!!                                             ", " ########## ## $$        %                                      ", "  ###########            &                                      ", "  ########                '                                     ", "               $$                                               ", "                                ((                              ", "                          )                                     ", "                           *                                    ", "                            *   ((                              ", "                                (                               ", "                              +                                 ", "                                                                ", "                                  '                             ", "                                 ''''                           ", "                                 '                              ", "                                 ' ''                           ", "                                                                ", "                                  ,,                            ", "                                  ,,                            ", "                                   ,                            ", "                                                                ", "                                    -                           ", "                                    --                          ", "                                    ---                         ", "                                      -                         ", "                                                                ", "                                     .                          ", "                                     .                          ", "                                     .                          ", "                                                                ", "                                    /                           ", "                                   //        0                  ", "                                    /        0                  ", "                                                                ", "                                   /                            ", "                                  1                             ", "                                                                ", "                                 1                              ", "                                 1                              ", "     2 22       2                                               ", "                                                                ", "                                                                ", "                                       3                        "]}