{"keys": ["", "174", "239", "154", "60", "190", "142", "53", "45", "101", "103", "102", "206", "72", "163", "98", "153", "207", "30", "208", "129", "110", "65", "58", "105", "192", "86", "183", "81", "170", "171", "80", "237", "211", "89", "187", "22", "94", "4", "74", "201", "5", "3", "203", "93", "84", "195", "96", "2", "200", "117", "88", "31", "162", "191", "83", "107", "50", "139", "176", "97", "155", "10", "118", "227", "14", "18", "245", "113", "126", "36", "189", "99", "215", "221", "194", "172", "150", "54", "209", "152", "56", "25", "186", "231", "198", "35", "40", "26", "63", "69", "119", "224", "121", "230", "67", "27", "28", "205", "92"], "data": {"215": {"1990": 0.324281, "Indicator": "CO2 emissions (metric tons per capita)", "UN": 704, "NAME": "Viet Nam", "AREA": 32549, "1965": 0.343354, "REGION": 142, "LON": 105.314, "SUBREGION": 35, "ISO3": "VNM", "ISO2": "VN", "FIPS": "VM", "Indicato_1": "EN.ATM.CO2E.PC", "LAT": 21.491, "2011": 1.971889, "POP2005": 85028643}, "211": {"1990": 0, "Indicator": "CO2 emissions (metric tons per capita)", "UN": 860, "NAME": "Uzbekistan", "AREA": 42540, "1965": 0, "REGION": 142, "LON": 63.17, "SUBREGION": 143, "ISO3": "UZB", "ISO2": "UZ", "FIPS": "UZ", "Indicato_1": "EN.ATM.CO2E.PC", "LAT": 41.75, "2011": 3.914921, "POP2005": 26593123}, "139": {"1990": 0, "Indicator": "CO2 emissions (metric tons per capita)", "UN": 275, "NAME": "Palestine", "AREA": 0, "1965": 0, "REGION": 142, "LON": 35.278, "SUBREGION": 145, "ISO3": "PSE", "ISO2": "PS", "FIPS": "", "Indicato_1": "EN.ATM.CO2E.PC", "LAT": 32.037, "2011": 0.572407, "POP2005": 3762005}, "25": {"1990": 0.049798, "Indicator": "CO2 emissions (metric tons per capita)", "UN": 116, "NAME": "Cambodia", "AREA": 17652, "1965": 0.062393, "REGION": 142, "LON": 104.564, "SUBREGION": 35, "ISO3": "KHM", "ISO2": "KH", "FIPS": "CB", "Indicato_1": "EN.ATM.CO2E.PC", "LAT": 12.714, "2011": 0.307804, "POP2005": 13955507}, "26": {"1990": 0.227369, "Indicator": "CO2 emissions (metric tons per capita)", "UN": 144, "NAME": "Sri Lanka", "AREA": 6463, "1965": 0.238138, "REGION": 142, "LON": 80.704, "SUBREGION": 34, "ISO3": "LKA", "ISO2": "LK", "FIPS": "CE", "Indicato_1": "EN.ATM.CO2E.PC", "LAT": 7.612, "2011": 0.729921, "POP2005": 19120763}, "27": {"1990": 0.498517, "Indicator": "CO2 emissions (metric tons per capita)", "UN": 178, "NAME": "Congo", "AREA": 34150, "1965": 0.212184, "REGION": 2, "LON": 15.986, "SUBREGION": 17, "ISO3": "COG", "ISO2": "CG", "FIPS": "CF", "Indicato_1": "EN.ATM.CO2E.PC", "LAT": -0.055, "2011": 0.531995, "POP2005": 3609851}, "22": {"1990": 8.690224, "Indicator": "CO2 emissions (metric tons per capita)", "UN": 100, "NAME": "Bulgaria", "AREA": 11063, "1965": 5.645652, "REGION": 150, "LON": 25.231, "SUBREGION": 151, "ISO3": "BGR", "ISO2": "BG", "FIPS": "BU", "Indicato_1": "EN.ATM.CO2E.PC", "LAT": 42.761, "2011": 6.714383, "POP2005": 7744591}, "28": {"1990": 0.116594, "Indicator": "CO2 emissions (metric tons per capita)", "UN": 180, "NAME": "Democratic Republic of the Congo", "AREA": 226705, "1965": 0.14229, "REGION": 2, "LON": 23.654, "SUBREGION": 17, "ISO3": "COD", "ISO2": "CD", "FIPS": "CG", "Indicato_1": "EN.ATM.CO2E.PC", "LAT": -2.876, "2011": 0.053573, "POP2005": 58740547}, "4": {"1990": 2.278387, "Indicator": "CO2 emissions (metric tons per capita)", "UN": 8, "NAME": "Albania", "AREA": 2740, "1965": 1.166099, "REGION": 150, "LON": 20.068, "SUBREGION": 39, "ISO3": "ALB", "ISO2": "AL", "FIPS": "AL", "Indicato_1": "EN.ATM.CO2E.PC", "LAT": 41.143, "2011": 1.607038, "POP2005": 3153731}, "96": {"1990": 5.760374, "Indicator": "CO2 emissions (metric tons per capita)", "UN": 410, "NAME": "Korea, Republic of", "AREA": 9873, "1965": 0.871122, "REGION": 142, "LON": 128.103, "SUBREGION": 30, "ISO3": "KOR", "ISO2": "KR", "FIPS": "KS", "Indicato_1": "EN.ATM.CO2E.PC", "LAT": 36.504, "2011": 11.840757, "POP2005": 47869837}, "121": {"1990": 3.1076, "Indicator": "CO2 emissions (metric tons per capita)", "UN": 458, "NAME": "Malaysia", "AREA": 32855, "1965": 0, "REGION": 142, "LON": 102.195, "SUBREGION": 35, "ISO3": "MYS", "ISO2": "MY", "FIPS": "MY", "Indicato_1": "EN.ATM.CO2E.PC", "LAT": 4.201, "2011": 7.847738, "POP2005": 25652985}, "126": {"1990": 0.107353, "Indicator": "CO2 emissions (metric tons per capita)", "UN": 562, "NAME": "Niger", "AREA": 126670, "1965": 0.023896, "REGION": 2, "LON": 9.398, "SUBREGION": 11, "ISO3": "NER", "ISO2": "NE", "FIPS": "NG", "Indicato_1": "EN.ATM.CO2E.PC", "LAT": 17.426, "2011": 0.08617, "POP2005": 1326419}, "129": {"1990": 10.639672, "Indicator": "CO2 emissions (metric tons per capita)", "UN": 56, "NAME": "Belgium", "AREA": 0, "1965": 11.141656, "REGION": 150, "LON": 4.664, "SUBREGION": 155, "ISO3": "BEL", "ISO2": "BE", "FIPS": "BE", "Indicato_1": "EN.ATM.CO2E.PC", "LAT": 50.643, "2011": 8.849398, "POP2005": 10398049}, "58": {"1990": 0, "Indicator": "CO2 emissions (metric tons per capita)", "UN": 203, "NAME": "Czech Republic", "AREA": 7727, "1965": 0, "REGION": 150, "LON": 15.338, "SUBREGION": 151, "ISO3": "CZE", "ISO2": "CZ", "FIPS": "EZ", "Indicato_1": "EN.ATM.CO2E.PC", "LAT": 49.743, "2011": 10.431088, "POP2005": 10191762}, "54": {"1990": 0, "Indicator": "CO2 emissions (metric tons per capita)", "UN": 232, "NAME": "Eritrea", "AREA": 10100, "1965": 0, "REGION": 2, "LON": 38.219, "SUBREGION": 14, "ISO3": "ERI", "ISO2": "ER", "FIPS": "ER", "Indicato_1": "EN.ATM.CO2E.PC", "LAT": 16.045, "2011": 0.087768, "POP2005": 4526722}, "56": {"1990": 0.062818, "Indicator": "CO2 emissions (metric tons per capita)", "UN": 231, "NAME": "Ethiopia", "AREA": 100000, "1965": 0.025802, "REGION": 2, "LON": 39.616, "SUBREGION": 14, "ISO3": "ETH", "ISO2": "ET", "FIPS": "ET", "Indicato_1": "EN.ATM.CO2E.PC", "LAT": 8.626, "2011": 0.08438, "POP2005": 78985857}, "50": {"1990": 1.348032, "Indicator": "CO2 emissions (metric tons per capita)", "UN": 818, "NAME": "Egypt", "AREA": 99545, "1965": 0.861547, "REGION": 2, "LON": 29.872, "SUBREGION": 15, "ISO3": "EGY", "ISO2": "EG", "FIPS": "EG", "Indicato_1": "EN.ATM.CO2E.PC", "LAT": 26.494, "2011": 2.780995, "POP2005": 72849793}, "53": {"1990": 0, "Indicator": "CO2 emissions (metric tons per capita)", "UN": 233, "NAME": "Estonia", "AREA": 4239, "1965": 0, "REGION": 150, "LON": 25.793, "SUBREGION": 154, "ISO3": "EST", "ISO2": "EE", "FIPS": "EN", "Indicato_1": "EN.ATM.CO2E.PC", "LAT": 58.674, "2011": 14.049883, "POP2005": 1344312}, "198": {"1990": 0.204281, "Indicator": "CO2 emissions (metric tons per capita)", "UN": 768, "NAME": "Togo", "AREA": 5439, "1965": 0.077262, "REGION": 2, "LON": 1.081, "SUBREGION": 11, "ISO3": "TGO", "ISO2": "TG", "FIPS": "TO", "Indicato_1": "EN.ATM.CO2E.PC", "LAT": 8.799, "2011": 0.324077, "POP2005": 6238572}, "195": {"1990": 0, "Indicator": "CO2 emissions (metric tons per capita)", "UN": 762, "NAME": "Tajikistan", "AREA": 13996, "1965": 0, "REGION": 142, "LON": 69.42, "SUBREGION": 143, "ISO3": "TJK", "ISO2": "TJ", "FIPS": "TI", "Indicato_1": "EN.ATM.CO2E.PC", "LAT": 38.665, "2011": 0.356149, "POP2005": 6550213}, "194": {"1990": 1.693686, "Indicator": "CO2 emissions (metric tons per capita)", "UN": 764, "NAME": "Thailand", "AREA": 51089, "1965": 0.234199, "REGION": 142, "LON": 100.844, "SUBREGION": 35, "ISO3": "THA", "ISO2": "TH", "FIPS": "TH", "Indicato_1": "EN.ATM.CO2E.PC", "LAT": 15.7, "2011": 4.556738, "POP2005": 63002911}, "191": {"1990": 3.007746, "Indicator": "CO2 emissions (metric tons per capita)", "UN": 760, "NAME": "Syrian Arab Republic", "AREA": 18378, "1965": 0.681322, "REGION": 142, "LON": 38.506, "SUBREGION": 145, "ISO3": "SYR", "ISO2": "SY", "FIPS": "SY", "Indicato_1": "EN.ATM.CO2E.PC", "LAT": 35.013, "2011": 2.625979, "POP2005": 18893881}, "190": {"1990": 6.069368, "Indicator": "CO2 emissions (metric tons per capita)", "UN": 752, "NAME": "Sweden", "AREA": 41033, "1965": 8.097994, "REGION": 150, "LON": 15.27, "SUBREGION": 154, "ISO3": "SWE", "ISO2": "SE", "FIPS": "SW", "Indicato_1": "EN.ATM.CO2E.PC", "LAT": 62.011, "2011": 5.518421, "POP2005": 9038049}, "192": {"1990": 6.345085, "Indicator": "CO2 emissions (metric tons per capita)", "UN": 756, "NAME": "Switzerland", "AREA": 4000, "1965": 5.185732, "REGION": 150, "LON": 7.908, "SUBREGION": 155, "ISO3": "CHE", "ISO2": "CH", "FIPS": "SZ", "Indicato_1": "EN.ATM.CO2E.PC", "LAT": 46.861, "2011": 4.62523, "POP2005": 7424389}, "117": {"1990": 6.150148, "Indicator": "CO2 emissions (metric tons per capita)", "UN": 470, "NAME": "Malta", "AREA": 32, "1965": 1.483824, "REGION": 150, "LON": 14.442, "SUBREGION": 39, "ISO3": "MLT", "ISO2": "MT", "FIPS": "MT", "Indicato_1": "EN.ATM.CO2E.PC", "LAT": 35.89, "2011": 6.034322, "POP2005": 402617}, "89": {"1990": 8.857976, "Indicator": "CO2 emissions (metric tons per capita)", "UN": 392, "NAME": "Japan", "AREA": 36450, "1965": 3.912906, "REGION": 142, "LON": 139.068, "SUBREGION": 30, "ISO3": "JPN", "ISO2": "JP", "FIPS": "JA", "Indicato_1": "EN.ATM.CO2E.PC", "LAT": 36.491, "2011": 9.291834, "POP2005": 127896740}, "110": {"1990": 4.598526, "Indicator": "CO2 emissions (metric tons per capita)", "UN": 496, "NAME": "Mongolia", "AREA": 156650, "1965": 1.768715, "REGION": 142, "LON": 102.876, "SUBREGION": 30, "ISO3": "MNG", "ISO2": "MN", "FIPS": "MG", "Indicato_1": "EN.ATM.CO2E.PC", "LAT": 46.056, "2011": 6.927361, "POP2005": 2580704}, "113": {"1990": 0.052951, "Indicator": "CO2 emissions (metric tons per capita)", "UN": 466, "NAME": "Mali", "AREA": 122019, "1965": 0.036845, "REGION": 2, "LON": -3.524, "SUBREGION": 11, "ISO3": "MLI", "ISO2": "ML", "FIPS": "ML", "Indicato_1": "EN.ATM.CO2E.PC", "LAT": 17.35, "2011": 0.086736, "POP2005": 1161109}, "69": {"1990": 0.26872, "Indicator": "CO2 emissions (metric tons per capita)", "UN": 288, "NAME": "Ghana", "AREA": 22754, "1965": 0.22114, "REGION": 2, "LON": -1.207, "SUBREGION": 11, "ISO3": "GHA", "ISO2": "GH", "FIPS": "GH", "Indicato_1": "EN.ATM.CO2E.PC", "LAT": 7.96, "2011": 0.406136, "POP2005": 2253501}, "205": {"1990": 0.045799, "Indicator": "CO2 emissions (metric tons per capita)", "UN": 800, "NAME": "Uganda", "AREA": 19710, "1965": 0.078242, "REGION": 2, "LON": 32.386, "SUBREGION": 14, "ISO3": "UGA", "ISO2": "UG", "FIPS": "UG", "Indicato_1": "EN.ATM.CO2E.PC", "LAT": 1.28, "2011": 0.108086, "POP2005": 28947181}, "80": {"1990": 0, "Indicator": "CO2 emissions (metric tons per capita)", "UN": 191, "NAME": "Croatia", "AREA": 5592, "1965": 0, "REGION": 150, "LON": 16.693, "SUBREGION": 39, "ISO3": "HRV", "ISO2": "HR", "FIPS": "HR", "Indicato_1": "EN.ATM.CO2E.PC", "LAT": 45.723, "2011": 4.80153, "POP2005": 455149}, "81": {"1990": 6.710469, "Indicator": "CO2 emissions (metric tons per capita)", "UN": 348, "NAME": "Hungary", "AREA": 9210, "1965": 6.040037, "REGION": 150, "LON": 19.134, "SUBREGION": 151, "ISO3": "HUN", "ISO2": "HU", "FIPS": "HU", "Indicato_1": "EN.ATM.CO2E.PC", "LAT": 47.07, "2011": 4.86299, "POP2005": 10086387}, "119": {"1990": 0.713494, "Indicator": "CO2 emissions (metric tons per capita)", "UN": 462, "NAME": "Maldives", "AREA": 30, "1965": 0, "REGION": 142, "LON": 72.92, "SUBREGION": 34, "ISO3": "MDV", "ISO2": "MV", "FIPS": "MV", "Indicato_1": "EN.ATM.CO2E.PC", "LAT": 3.548, "2011": 3.32496, "POP2005": 295297}, "118": {"1990": 6.290269, "Indicator": "CO2 emissions (metric tons per capita)", "UN": 512, "NAME": "Oman", "AREA": 30950, "1965": 0.04107, "REGION": 142, "LON": 57.407, "SUBREGION": 145, "ISO3": "OMN", "ISO2": "OM", "FIPS": "MU", "Indicato_1": "EN.ATM.CO2E.PC", "LAT": 21.656, "2011": 21.441127, "POP2005": 2507042}, "84": {"1990": 3.746059, "Indicator": "CO2 emissions (metric tons per capita)", "UN": 364, "NAME": "Iran (Islamic Republic of)", "AREA": 163620, "1965": 2.148596, "REGION": 142, "LON": 54.301, "SUBREGION": 34, "ISO3": "IRN", "ISO2": "IR", "FIPS": "IR", "Indicato_1": "EN.ATM.CO2E.PC", "LAT": 32.565, "2011": 7.777323, "POP2005": 69420607}, "3": {"1990": 0, "Indicator": "CO2 emissions (metric tons per capita)", "UN": 31, "NAME": "Azerbaijan", "AREA": 8260, "1965": 0, "REGION": 142, "LON": 47.395, "SUBREGION": 145, "ISO3": "AZE", "ISO2": "AZ", "FIPS": "AJ", "Indicato_1": "EN.ATM.CO2E.PC", "LAT": 40.43, "2011": 3.647379, "POP2005": 8352021}, "92": {"1990": 0.248362, "Indicator": "CO2 emissions (metric tons per capita)", "UN": 404, "NAME": "Kenya", "AREA": 56914, "1965": 0.259649, "REGION": 2, "LON": 37.858, "SUBREGION": 14, "ISO3": "KEN", "ISO2": "KE", "FIPS": "KE", "Indicato_1": "EN.ATM.CO2E.PC", "LAT": 0.53, "2011": 0.322831, "POP2005": 35598952}, "245": {"1990": 0, "Indicator": "CO2 emissions (metric tons per capita)", "UN": 158, "NAME": "Taiwan", "AREA": 0, "1965": 0, "REGION": 0, "LON": 120.946, "SUBREGION": 0, "ISO3": "TWN", "ISO2": "TW", "FIPS": "TW", "Indicato_1": "EN.ATM.CO2E.PC", "LAT": 23.754, "2011": 0, "POP2005": 0}, "102": {"1990": 0, "Indicator": "CO2 emissions (metric tons per capita)", "UN": 112, "NAME": "Belarus", "AREA": 20748, "1965": 0, "REGION": 150, "LON": 28.047, "SUBREGION": 151, "ISO3": "BLR", "ISO2": "BY", "FIPS": "BO", "Indicato_1": "EN.ATM.CO2E.PC", "LAT": 53.54, "2011": 6.68251, "POP2005": 9795287}, "103": {"1990": 0, "Indicator": "CO2 emissions (metric tons per capita)", "UN": 440, "NAME": "Lithuania", "AREA": 6268, "1965": 0, "REGION": 150, "LON": 23.897, "SUBREGION": 154, "ISO3": "LTU", "ISO2": "LT", "FIPS": "LH", "Indicato_1": "EN.ATM.CO2E.PC", "LAT": 55.336, "2011": 4.537559, "POP2005": 3425077}, "101": {"1990": 0, "Indicator": "CO2 emissions (metric tons per capita)", "UN": 428, "NAME": "Latvia", "AREA": 6205, "1965": 0, "REGION": 150, "LON": 25.641, "SUBREGION": 154, "ISO3": "LVA", "ISO2": "LV", "FIPS": "LG", "Indicato_1": "EN.ATM.CO2E.PC", "LAT": 56.858, "2011": 3.786801, "POP2005": 2301793}, "107": {"1990": 8.634188, "Indicator": "CO2 emissions (metric tons per capita)", "UN": 434, "NAME": "Libyan Arab Jamahiriya", "AREA": 175954, "1965": 0.593443, "REGION": 2, "LON": 18.023, "SUBREGION": 15, "ISO3": "LBY", "ISO2": "LY", "FIPS": "LY", "Indicato_1": "EN.ATM.CO2E.PC", "LAT": 27.044, "2011": 6.393422, "POP2005": 5918217}, "105": {"1990": 0, "Indicator": "CO2 emissions (metric tons per capita)", "UN": 703, "NAME": "Slovakia", "AREA": 4808, "1965": 0, "REGION": 150, "LON": 19.491, "SUBREGION": 151, "ISO3": "SVK", "ISO2": "SK", "FIPS": "LO", "Indicato_1": "EN.ATM.CO2E.PC", "LAT": 48.707, "2011": 6.367546, "POP2005": 5386995}, "31": {"1990": 0.228187, "Indicator": "CO2 emissions (metric tons per capita)", "UN": 4, "NAME": "Afghanistan", "AREA": 65209, "1965": 0.103269, "REGION": 142, "LON": 65.216, "SUBREGION": 34, "ISO3": "AFG", "ISO2": "AF", "FIPS": "AF", "Indicato_1": "EN.ATM.CO2E.PC", "LAT": 33.677, "2011": 0.420933, "POP2005": 25067407}, "30": {"1990": 2.167703, "Indicator": "CO2 emissions (metric tons per capita)", "UN": 156, "NAME": "China", "AREA": 932743, "1965": 0.665524, "REGION": 142, "LON": 106.514, "SUBREGION": 30, "ISO3": "CHN", "ISO2": "CN", "FIPS": "CH", "Indicato_1": "EN.ATM.CO2E.PC", "LAT": 33.42, "2011": 6.710302, "POP2005": 1312978855}, "36": {"1990": 0.024646, "Indicator": "CO2 emissions (metric tons per capita)", "UN": 148, "NAME": "Chad", "AREA": 125920, "1965": 0.032119, "REGION": 2, "LON": 18.665, "SUBREGION": 17, "ISO3": "TCD", "ISO2": "TD", "FIPS": "CD", "Indicato_1": "EN.ATM.CO2E.PC", "LAT": 15.361, "2011": 0.044623, "POP2005": 10145609}, "35": {"1990": 0.144002, "Indicator": "CO2 emissions (metric tons per capita)", "UN": 120, "NAME": "Cameroon", "AREA": 46540, "1965": 0.052056, "REGION": 2, "LON": 12.277, "SUBREGION": 17, "ISO3": "CMR", "ISO2": "CM", "FIPS": "CM", "Indicato_1": "EN.ATM.CO2E.PC", "LAT": 5.133, "2011": 0.26762, "POP2005": 17795149}, "162": {"1990": 0.617202, "Indicator": "CO2 emissions (metric tons per capita)", "UN": 586, "NAME": "Pakistan", "AREA": 77088, "1965": 0.385999, "REGION": 142, "LON": 69.386, "SUBREGION": 34, "ISO3": "PAK", "ISO2": "PK", "FIPS": "PK", "Indicato_1": "EN.ATM.CO2E.PC", "LAT": 29.967, "2011": 0.927832, "POP2005": 158080591}, "60": {"1990": 10.377169, "Indicator": "CO2 emissions (metric tons per capita)", "UN": 246, "NAME": "Finland", "AREA": 30459, "1965": 5.549837, "REGION": 150, "LON": 26.272, "SUBREGION": 154, "ISO3": "FIN", "ISO2": "FI", "FIPS": "FI", "Indicato_1": "EN.ATM.CO2E.PC", "LAT": 64.504, "2011": 10.164046, "POP2005": 5246004}, "63": {"1990": 0, "Indicator": "CO2 emissions (metric tons per capita)", "UN": 583, "NAME": "Micronesia, Federated States of", "AREA": 70, "1965": 0, "REGION": 9, "LON": 158.235, "SUBREGION": 57, "ISO3": "FSM", "ISO2": "FM", "FIPS": "FM", "Indicato_1": "EN.ATM.CO2E.PC", "LAT": 6.883, "2011": 1.24096, "POP2005": 110058}, "97": {"1990": 23.455352, "Indicator": "CO2 emissions (metric tons per capita)", "UN": 414, "NAME": "Kuwait", "AREA": 1782, "1965": 73.446912, "REGION": 142, "LON": 47.376, "SUBREGION": 145, "ISO3": "KWT", "ISO2": "KW", "FIPS": "KU", "Indicato_1": "EN.ATM.CO2E.PC", "LAT": 29.476, "2011": 29.132225, "POP2005": 2700}, "65": {"1990": 6.431055, "Indicator": "CO2 emissions (metric tons per capita)", "UN": 250, "NAME": "France", "AREA": 55010, "1965": 7.044729, "REGION": 150, "LON": 2.55, "SUBREGION": 155, "ISO3": "FRA", "ISO2": "FR", "FIPS": "FR", "Indicato_1": "EN.ATM.CO2E.PC", "LAT": 46.565, "2011": 5.185411, "POP2005": 60990544}, "67": {"1990": 5.116818, "Indicator": "CO2 emissions (metric tons per capita)", "UN": 266, "NAME": "Gabon", "AREA": 25767, "1965": 0.406754, "REGION": 2, "LON": 11.797, "SUBREGION": 17, "ISO3": "GAB", "ISO2": "GA", "FIPS": "GB", "Indicato_1": "EN.ATM.CO2E.PC", "LAT": -0.591, "2011": 1.403276, "POP2005": 1290693}, "176": {"1990": 13.448544, "Indicator": "CO2 emissions (metric tons per capita)", "UN": 682, "NAME": "Saudi Arabia", "AREA": 214969, "1965": 0.875213, "REGION": 142, "LON": 44.585, "SUBREGION": 145, "ISO3": "SAU", "ISO2": "SA", "FIPS": "SA", "Indicato_1": "EN.ATM.CO2E.PC", "LAT": 24.023, "2011": 18.740823, "POP2005": 2361236}, "174": {"1990": 0, "Indicator": "CO2 emissions (metric tons per capita)", "UN": 643, "NAME": "Russia", "AREA": 1638094, "1965": 0, "REGION": 150, "LON": 96.689, "SUBREGION": 151, "ISO3": "RUS", "ISO2": "RU", "FIPS": "RS", "Indicato_1": "EN.ATM.CO2E.PC", "LAT": 61.988, "2011": 12.647328, "POP2005": 143953092}, "172": {"1990": 0.674162, "Indicator": "CO2 emissions (metric tons per capita)", "UN": 608, "NAME": "Philippines", "AREA": 29817, "1965": 0.452308, "REGION": 142, "LON": 122.466, "SUBREGION": 35, "ISO3": "PHL", "ISO2": "PH", "FIPS": "RP", "Indicato_1": "EN.ATM.CO2E.PC", "LAT": 11.118, "2011": 0.862804, "POP2005": 84566163}, "171": {"1990": 0, "Indicator": "CO2 emissions (metric tons per capita)", "UN": 498, "NAME": "Republic of Moldova", "AREA": 3288, "1965": 0, "REGION": 150, "LON": 28.599, "SUBREGION": 151, "ISO3": "MDA", "ISO2": "MD", "FIPS": "MD", "Indicato_1": "EN.ATM.CO2E.PC", "LAT": 47.193, "2011": 1.398822, "POP2005": 3876661}, "170": {"1990": 6.846949, "Indicator": "CO2 emissions (metric tons per capita)", "UN": 642, "NAME": "Romania", "AREA": 22987, "1965": 4.13645, "REGION": 150, "LON": 24.969, "SUBREGION": 151, "ISO3": "ROU", "ISO2": "RO", "FIPS": "RO", "Indicato_1": "EN.ATM.CO2E.PC", "LAT": 45.844, "2011": 4.21056, "POP2005": 21627557}, "183": {"1990": 0, "Indicator": "CO2 emissions (metric tons per capita)", "UN": 705, "NAME": "Slovenia", "AREA": 2014, "1965": 0, "REGION": 150, "LON": 14.827, "SUBREGION": 39, "ISO3": "SVN", "ISO2": "SI", "FIPS": "SI", "Indicato_1": "EN.ATM.CO2E.PC", "LAT": 46.124, "2011": 7.50426, "POP2005": 1999425}, "2": {"1990": 3.00784, "Indicator": "CO2 emissions (metric tons per capita)", "UN": 12, "NAME": "Algeria", "AREA": 238174, "1965": 0.516552, "REGION": 2, "LON": 2.632, "SUBREGION": 15, "ISO3": "DZA", "ISO2": "DZ", "FIPS": "AG", "Indicato_1": "EN.ATM.CO2E.PC", "LAT": 28.163, "2011": 3.224202, "POP2005": 32854159}, "186": {"1990": 0.0029, "Indicator": "CO2 emissions (metric tons per capita)", "UN": 706, "NAME": "Somalia", "AREA": 62734, "1965": 0.043007, "REGION": 2, "LON": 48.316, "SUBREGION": 14, "ISO3": "SOM", "ISO2": "SO", "FIPS": "SO", "Indicato_1": "EN.ATM.CO2E.PC", "LAT": 9.774, "2011": 0.058107, "POP2005": 8196395}, "187": {"1990": 5.626635, "Indicator": "CO2 emissions (metric tons per capita)", "UN": 724, "NAME": "Spain", "AREA": 49904, "1965": 2.22561, "REGION": 150, "LON": -3.649, "SUBREGION": 39, "ISO3": "ESP", "ISO2": "ES", "FIPS": "SP", "Indicato_1": "EN.ATM.CO2E.PC", "LAT": 40.227, "2011": 5.790764, "POP2005": 43397491}, "189": {"1990": 0.215697, "Indicator": "CO2 emissions (metric tons per capita)", "UN": 736, "NAME": "Sudan", "AREA": 237600, "1965": 0.202255, "REGION": 2, "LON": 30.05, "SUBREGION": 15, "ISO3": "SDN", "ISO2": "SD", "FIPS": "SU", "Indicato_1": "EN.ATM.CO2E.PC", "LAT": 13.832, "2011": 0.354151, "POP2005": 36899747}, "99": {"1990": 0.055292, "Indicator": "CO2 emissions (metric tons per capita)", "UN": 418, "NAME": "Lao People's Democratic Republic", "AREA": 23080, "1965": 0.075478, "REGION": 142, "LON": 102.471, "SUBREGION": 35, "ISO3": "LAO", "ISO2": "LA", "FIPS": "LA", "Indicato_1": "EN.ATM.CO2E.PC", "LAT": 19.905, "2011": 0.184438, "POP2005": 566391}, "98": {"1990": 0, "Indicator": "CO2 emissions (metric tons per capita)", "UN": 398, "NAME": "Kazakhstan", "AREA": 269970, "1965": 0, "REGION": 142, "LON": 67.301, "SUBREGION": 143, "ISO3": "KAZ", "ISO2": "KZ", "FIPS": "KZ", "Indicato_1": "EN.ATM.CO2E.PC", "LAT": 48.16, "2011": 15.810098, "POP2005": 15210609}, "227": {"1990": 28.789991, "Indicator": "CO2 emissions (metric tons per capita)", "UN": 784, "NAME": "United Arab Emirates", "AREA": 8360, "1965": 0.150347, "REGION": 142, "LON": 54.163, "SUBREGION": 145, "ISO3": "ARE", "ISO2": "AE", "FIPS": "AE", "Indicato_1": "EN.ATM.CO2E.PC", "LAT": 23.549, "2011": 19.99798, "POP2005": 4104291}, "93": {"1990": 0, "Indicator": "CO2 emissions (metric tons per capita)", "UN": 417, "NAME": "Kyrgyzstan", "AREA": 19180, "1965": 0, "REGION": 142, "LON": 74.555, "SUBREGION": 143, "ISO3": "KGZ", "ISO2": "KG", "FIPS": "KG", "Indicato_1": "EN.ATM.CO2E.PC", "LAT": 41.465, "2011": 1.199592, "POP2005": 5203547}, "224": {"1990": 0.837279, "Indicator": "CO2 emissions (metric tons per capita)", "UN": 360, "NAME": "Indonesia", "AREA": 181157, "1965": 0.246087, "REGION": 142, "LON": 114.252, "SUBREGION": 35, "ISO3": "IDN", "ISO2": "ID", "FIPS": "ID", "Indicato_1": "EN.ATM.CO2E.PC", "LAT": -0.976, "2011": 2.313293, "POP2005": 226063044}, "94": {"1990": 12.123909, "Indicator": "CO2 emissions (metric tons per capita)", "UN": 408, "NAME": "Korea, Democratic People's Republic of", "AREA": 12041, "1965": 3.528028, "REGION": 142, "LON": 126.451, "SUBREGION": 30, "ISO3": "PRK", "ISO2": "KP", "FIPS": "KN", "Indicato_1": "EN.ATM.CO2E.PC", "LAT": 39.778, "2011": 2.98719, "POP2005": 23615611}, "221": {"1990": 0.813939, "Indicator": "CO2 emissions (metric tons per capita)", "UN": 887, "NAME": "Yemen", "AREA": 52797, "1965": 0.705248, "REGION": 142, "LON": 48.355, "SUBREGION": 145, "ISO3": "YEM", "ISO2": "YE", "FIPS": "YM", "Indicato_1": "EN.ATM.CO2E.PC", "LAT": 15.807, "2011": 0.95671, "POP2005": 21095679}, "163": {"1990": 9.666499, "Indicator": "CO2 emissions (metric tons per capita)", "UN": 616, "NAME": "Poland", "AREA": 30629, "1965": 7.862051, "REGION": 150, "LON": 19.401, "SUBREGION": 151, "ISO3": "POL", "ISO2": "PL", "FIPS": "PL", "Indicato_1": "EN.ATM.CO2E.PC", "LAT": 52.125, "2011": 8.335787, "POP2005": 38195558}, "10": {"1990": 25.538807, "Indicator": "CO2 emissions (metric tons per capita)", "UN": 48, "NAME": "Bahrain", "AREA": 71, "1965": 6.557022, "REGION": 142, "LON": 50.562, "SUBREGION": 145, "ISO3": "BHR", "ISO2": "BH", "FIPS": "BA", "Indicato_1": "EN.ATM.CO2E.PC", "LAT": 26.019, "2011": 18.131278, "POP2005": 724788}, "14": {"1990": 0.14465, "Indicator": "CO2 emissions (metric tons per capita)", "UN": 50, "NAME": "Bangladesh", "AREA": 13017, "1965": 0, "REGION": 142, "LON": 89.941, "SUBREGION": 34, "ISO3": "BGD", "ISO2": "BD", "FIPS": "BG", "Indicato_1": "EN.ATM.CO2E.PC", "LAT": 24.218, "2011": 0.373339, "POP2005": 15328112}, "18": {"1990": 0.101506, "Indicator": "CO2 emissions (metric tons per capita)", "UN": 104, "NAME": "Burma", "AREA": 65755, "1965": 0.113565, "REGION": 142, "LON": 96.041, "SUBREGION": 35, "ISO3": "MMR", "ISO2": "MM", "FIPS": "BM", "Indicato_1": "EN.ATM.CO2E.PC", "LAT": 21.718, "2011": 0.199423, "POP2005": 47967266}, "88": {"1990": 3.000164, "Indicator": "CO2 emissions (metric tons per capita)", "UN": 368, "NAME": "Iraq", "AREA": 43737, "1965": 2.305942, "REGION": 142, "LON": 43.772, "SUBREGION": 145, "ISO3": "IRQ", "ISO2": "IQ", "FIPS": "IZ", "Indicato_1": "EN.ATM.CO2E.PC", "LAT": 33.048, "2011": 4.208272, "POP2005": 27995984}, "150": {"1990": 0, "Indicator": "", "UN": 581, "NAME": "United States Minor Outlying Islands", "AREA": 0, "1965": 0, "REGION": 0, "LON": -160.027, "SUBREGION": 0, "ISO3": "UMI", "ISO2": "UM", "FIPS": "", "Indicato_1": "", "LAT": -0.385, "2011": 0, "POP2005": 0}, "153": {"1990": 10.594475, "Indicator": "CO2 emissions (metric tons per capita)", "UN": 528, "NAME": "Netherlands", "AREA": 3388, "1965": 8.174054, "REGION": 150, "LON": 5.389, "SUBREGION": 155, "ISO3": "NLD", "ISO2": "NL", "FIPS": "NL", "Indicato_1": "EN.ATM.CO2E.PC", "LAT": 52.077, "2011": 10.06449, "POP2005": 1632769}, "152": {"1990": 0.474553, "Indicator": "CO2 emissions (metric tons per capita)", "UN": 566, "NAME": "Nigeria", "AREA": 91077, "1965": 0.234157, "REGION": 2, "LON": 8.105, "SUBREGION": 11, "ISO3": "NGA", "ISO2": "NG", "FIPS": "NI", "Indicato_1": "EN.ATM.CO2E.PC", "LAT": 9.594, "2011": 0.536115, "POP2005": 141356083}, "155": {"1990": 0.035028, "Indicator": "CO2 emissions (metric tons per capita)", "UN": 524, "NAME": "Nepal", "AREA": 14300, "1965": 0.017205, "REGION": 142, "LON": 83.939, "SUBREGION": 34, "ISO3": "NPL", "ISO2": "NP", "FIPS": "NP", "Indicato_1": "EN.ATM.CO2E.PC", "LAT": 28.253, "2011": 0.159609, "POP2005": 27093656}, "154": {"1990": 7.399753, "Indicator": "CO2 emissions (metric tons per capita)", "UN": 578, "NAME": "Norway", "AREA": 30625, "1965": 4.40749, "REGION": 150, "LON": 8.74, "SUBREGION": 154, "ISO3": "NOR", "ISO2": "NO", "FIPS": "NO", "Indicato_1": "EN.ATM.CO2E.PC", "LAT": 61.152, "2011": 9.192879, "POP2005": 4638836}, "239": {"1990": 0, "Indicator": "", "UN": 744, "NAME": "Svalbard", "AREA": 0, "1965": 0, "REGION": 150, "LON": 18.374, "SUBREGION": 154, "ISO3": "SJM", "ISO2": "SJ", "FIPS": "SV", "Indicato_1": "", "LAT": 78.83, "2011": 0, "POP2005": 0}, "83": {"1990": 0.79478, "Indicator": "CO2 emissions (metric tons per capita)", "UN": 356, "NAME": "India", "AREA": 297319, "1965": 0.333309, "REGION": 142, "LON": 78.5, "SUBREGION": 34, "ISO3": "IND", "ISO2": "IN", "FIPS": "IN", "Indicato_1": "EN.ATM.CO2E.PC", "LAT": 21, "2011": 1.698673, "POP2005": 1134403141}, "237": {"1990": 0, "Indicator": "CO2 emissions (metric tons per capita)", "UN": 688, "NAME": "Serbia", "AREA": 0, "1965": 0, "REGION": 150, "LON": 20.806, "SUBREGION": 39, "ISO3": "SRB", "ISO2": "RS", "FIPS": "RB", "Indicato_1": "EN.ATM.CO2E.PC", "LAT": 44.032, "2011": 6.799115, "POP2005": 9863026}, "230": {"1990": 15.553582, "Indicator": "CO2 emissions (metric tons per capita)", "UN": 585, "NAME": "Palau", "AREA": 0, "1965": 6.12187, "REGION": 9, "LON": 134.57, "SUBREGION": 57, "ISO3": "PLW", "ISO2": "PW", "FIPS": "PS", "Indicato_1": "EN.ATM.CO2E.PC", "LAT": 7.501, "2011": 10.85543, "POP2005": 20127}, "231": {"1990": 1.007844, "Indicator": "CO2 emissions (metric tons per capita)", "UN": 584, "NAME": "Marshall Islands", "AREA": 0, "1965": 0, "REGION": 9, "LON": 168.963, "SUBREGION": 57, "ISO3": "MHL", "ISO2": "MH", "FIPS": "RM", "Indicato_1": "EN.ATM.CO2E.PC", "LAT": 7.595, "2011": 1.95592, "POP2005": 5672}, "86": {"1990": 7.361705, "Indicator": "CO2 emissions (metric tons per capita)", "UN": 380, "NAME": "Italy", "AREA": 29411, "1965": 3.641502, "REGION": 150, "LON": 12.8, "SUBREGION": 39, "ISO3": "ITA", "ISO2": "IT", "FIPS": "IT", "Indicato_1": "EN.ATM.CO2E.PC", "LAT": 42.7, "2011": 6.702558, "POP2005": 5864636}, "45": {"1990": 9.770699, "Indicator": "CO2 emissions (metric tons per capita)", "UN": 208, "NAME": "Denmark", "AREA": 4243, "1965": 9.316576, "REGION": 150, "LON": 9.264, "SUBREGION": 154, "ISO3": "DNK", "ISO2": "DK", "FIPS": "DA", "Indicato_1": "EN.ATM.CO2E.PC", "LAT": 56.058, "2011": 7.248329, "POP2005": 5416945}, "40": {"1990": 0.067981, "Indicator": "CO2 emissions (metric tons per capita)", "UN": 140, "NAME": "Central African Republic", "AREA": 62298, "1965": 0.053376, "REGION": 2, "LON": 20.483, "SUBREGION": 17, "ISO3": "CAF", "ISO2": "CF", "FIPS": "CT", "Indicato_1": "EN.ATM.CO2E.PC", "LAT": 6.571, "2011": 0.064475, "POP2005": 4191429}, "5": {"1990": 0, "Indicator": "CO2 emissions (metric tons per capita)", "UN": 51, "NAME": "Armenia", "AREA": 2820, "1965": 0, "REGION": 142, "LON": 44.563, "SUBREGION": 145, "ISO3": "ARM", "ISO2": "AM", "FIPS": "AM", "Indicato_1": "EN.ATM.CO2E.PC", "LAT": 40.534, "2011": 1.673836, "POP2005": 3017661}, "201": {"1990": 2.701355, "Indicator": "CO2 emissions (metric tons per capita)", "UN": 792, "NAME": "Turkey", "AREA": 76963, "1965": 0.883506, "REGION": 142, "LON": 35.179, "SUBREGION": 145, "ISO3": "TUR", "ISO2": "TR", "FIPS": "TU", "Indicato_1": "EN.ATM.CO2E.PC", "LAT": 39.061, "2011": 4.391548, "POP2005": 72969723}, "200": {"1990": 1.627, "Indicator": "CO2 emissions (metric tons per capita)", "UN": 788, "NAME": "Tunisia", "AREA": 15536, "1965": 0.53223, "REGION": 2, "LON": 9.596, "SUBREGION": 15, "ISO3": "TUN", "ISO2": "TN", "FIPS": "TS", "Indicato_1": "EN.ATM.CO2E.PC", "LAT": 35.383, "2011": 2.402456, "POP2005": 10104685}, "203": {"1990": 0, "Indicator": "CO2 emissions (metric tons per capita)", "UN": 795, "NAME": "Turkmenistan", "AREA": 46993, "1965": 0, "REGION": 142, "LON": 59.384, "SUBREGION": 143, "ISO3": "TKM", "ISO2": "TM", "FIPS": "TX", "Indicato_1": "EN.ATM.CO2E.PC", "LAT": 39.122, "2011": 12.183676, "POP2005": 4833266}, "142": {"1990": 0, "Indicator": "", "UN": 248, "NAME": "\u00c5land Islands", "AREA": 0, "1965": 0, "REGION": 150, "LON": 19.952, "SUBREGION": 154, "ISO3": "ALA", "ISO2": "AX", "FIPS": "", "Indicato_1": "", "LAT": 60.198, "2011": 0, "POP2005": 0}, "207": {"1990": 0, "Indicator": "CO2 emissions (metric tons per capita)", "UN": 804, "NAME": "Ukraine", "AREA": 57935, "1965": 0, "REGION": 150, "LON": 31.388, "SUBREGION": 151, "ISO3": "UKR", "ISO2": "UA", "FIPS": "UP", "Indicato_1": "EN.ATM.CO2E.PC", "LAT": 49.016, "2011": 6.262352, "POP2005": 46917544}, "206": {"1990": 9.710497, "Indicator": "CO2 emissions (metric tons per capita)", "UN": 826, "NAME": "United Kingdom", "AREA": 24193, "1965": 11.45616, "REGION": 150, "LON": -1.6, "SUBREGION": 154, "ISO3": "GBR", "ISO2": "GB", "FIPS": "UK", "Indicato_1": "EN.ATM.CO2E.PC", "LAT": 53, "2011": 7.085732, "POP2005": 60244834}, "209": {"1990": 0.066589, "Indicator": "CO2 emissions (metric tons per capita)", "UN": 854, "NAME": "Burkina Faso", "AREA": 27360, "1965": 0.019841, "REGION": 2, "LON": -1.74, "SUBREGION": 11, "ISO3": "BFA", "ISO2": "BF", "FIPS": "UV", "Indicato_1": "EN.ATM.CO2E.PC", "LAT": 12.278, "2011": 0.120817, "POP2005": 13933363}, "208": {"1990": 19.323368, "Indicator": "CO2 emissions (metric tons per capita)", "UN": 840, "NAME": "United States", "AREA": 915896, "1965": 17.451725, "REGION": 19, "LON": -98.606, "SUBREGION": 21, "ISO3": "USA", "ISO2": "US", "FIPS": "US", "Indicato_1": "EN.ATM.CO2E.PC", "LAT": 39.622, "2011": 17.020216, "POP2005": 299846449}, "74": {"1990": 7.313131, "Indicator": "CO2 emissions (metric tons per capita)", "UN": 300, "NAME": "Greece", "AREA": 12890, "1965": 1.991254, "REGION": 150, "LON": 21.766, "SUBREGION": 39, "ISO3": "GRC", "ISO2": "GR", "FIPS": "GR", "Indicato_1": "EN.ATM.CO2E.PC", "LAT": 39.666, "2011": 7.556058, "POP2005": 11099737}, "72": {"1990": 0, "Indicator": "CO2 emissions (metric tons per capita)", "UN": 276, "NAME": "Germany", "AREA": 34895, "1965": 0, "REGION": 150, "LON": 9.851, "SUBREGION": 155, "ISO3": "DEU", "ISO2": "DE", "FIPS": "GM", "Indicato_1": "EN.ATM.CO2E.PC", "LAT": 51.11, "2011": 8.917833, "POP2005": 82652369}}, "grid": ["                                                                ", "                                                                ", "                                                                ", "                                                                ", "                                                                ", "                                                                ", "                                                                ", "                                                                ", "                                                                ", "                                                                ", "                     !                                          ", "                    !!!                                         ", "                  ! !  !    !   !!!                             ", "       ##       !!!!!!!          !!                             ", "       ##### #   !!!!!          !!!!                            ", "    ######                 !    !!!!                            ", "    #####                        !!!!!                          ", "    ####                            !!                          ", "     ## #                             !                         ", "     ## #                    !      !!!                         ", "      #  #              !         ! !!!!!            !          ", "                     !!!!        !!!!!!!!        !!   !         ", "                    !!!      !  !!!!!!!!!       !!!!!!          ", "                    !!      ! !!!!!!!!!!         !   !          ", "                   !!         !!!!!!!!!!!   !   ! !             ", "                   !!    ! !!!!!!!!!!!!!!!! !!     !            ", "                   !     ! !!!!!!!!!!!!!!!!!!!!   !!!!          ", "                   !    !!!!!!!!!!!!!!!!!!!!!!!!!!!!!!          ", "        $$$$        !!  !! !!!!!!!!!!!!!!!!!!!!!!!!!!!!!!       ", "      $$$$%!!    !   !!!!!!!!!!!!!!!!!!!!!!!!!!!!!!!!!!!!!!!!!!!", "     $$&&%!!!!  ! !!!!!!!!!!!!!!!!!!!!!!!!!!!!!!!!!!!!!!!!!!!!!!", "     $&&&%%!!!! !!!!!!!!!!!!!!!!!!!!!!!!!!!!!!!!!!!!!!!!!!!!!!!!", "     $&&&%%!!!!!!!!!!!!!!!!!!!!!!!!!!!!!!!!!!!!!!!!!!!!!!!!!!!!!", "    $&&& %%!!!!!!!!!!!!!!!!!!!!!!!!!!!!!!!!!!!!!!!!!!!!!!!!!!!!!", "   $$&&&%%%!!!!!!!!!!!!!!!!!!!!!!!!!!!!!!!!!!!!!!!!!!!!!!!!!!!!!", "  $$&&& %%%!!!!!!!!!!!!!!!!!!!!!!!!!!!!!!!!!!!!!!!!!!!!!!!!!!!!!", "  $$$&& %%%!!!!!!!!!!!!!!!!!!!!!!!!!!!!!!!!!!!!!!!!!!!!! !!!!!! ", "  $$&&&'%%!!!!!!!!!!!!!!!!!!!!!!!!!!!!!!!!!!!!!!!!!!!!!!  !!    ", "  $$&&& ((!!!!!!!!!!!!!!!!!!!!!!!!!!!!!!!!!!!!!!!!!   !  !!     ", "   )&&& **!!!!!!!!!!!!!!!!!!!!!!!!!!!!!!!!!!!!!!!!      !!      ", "   ))&  ++,!!!!!!!!!!!!!!!!!!!!!!!!!!!!!!!!!!!!!!      !!! !    ", "-  ..////+,!!!!!!!!!!!!00!!!!!!!!!!!!!!!!!!!!!!!!!!     !!      ", "- 1..////2,22!!!!!!!!!000000!!!!!!!!!!!!!!!!3!!!!!!!    !      4", "-51...///22222!!!!00!!0000000!!!!!!!6!!!!!!33!!!!!!!   !        ", "777..8992222222!!00000000000000666666666663333!!!!              ", "77::;<==>>?222!!!!000000000000036666666666633333!! !  !         ", "777;;@@AA>> 22!!! 00BB0000000033366666666333333!! C !           ", "DD77;;@AAE     !!!00BBBB0000033333666666333333F!  CC            ", "D  ; ;;GHIIIIIIIJK LLLBBBBBM33333333333333333FF   C             ", "D  ; ;;HHHIIIIIINN LLLLBBOO33333333333333333 P   CC             ", "QQQR S  HHIIIIITTNNNNNLLUVVV3333333333333333 PPC CC             ", "QQQR         WWTTNNNNNUUUVVXX33333333333333  PCCC               ", "QQQRYY YYY Z[]]TTTNNNNNUVVVXX333333333333333  C                 ", "QQQQYYYYYZZZZ]]]]^NNNNVVVVVXX__333X333333333  C                 ", "QQQQYYYYYZZZZ]]]]]`NaNVVVVXXXX__XXX33333333  C    C             ", "QQQQYYYYYZZZZ]]]]]]bb   VVXXXXXXcXd3333333eeC                   ", "fQQggghYYiiiii]]]]]]aa   XXXXXXXcXddjkk33  e                    ", "ffgggghhhiiiii ]]]l]a     XXXXX  ddmmk 3   n               o    ", "ffgggghhhiiiiiplllla      XXXX    dmmmk    n                    ", "qgrrrrhhiiiiiislll         XX    X mmtk    nn                   ", "qrrrrrhhiiiiissuuuu       XXX      m kk    nn              v    ", "wrrrrxyyyiiiisssuu        X  z   X m k      nn       {      v   ", "| rrxyyyyyiiisssuu        }       ~ m    \u007f\u007fn   \u0080          {     ", "    \u0081x\u0082\u0083\u0083\u0083\u0083\u0084\u0084\u0085\u0085uu         }       ~~~\u007f ~\u007f~~                     "]}