{"keys": ["", "165", "187", "2", "114", "236", "116", "113", "42", "182", "209", "167", "76", "69", "184", "87", "104"], "data": {"2": {"REAL": 3.529982, "INDEX": 0.711114528298, "NAME": "Algeria", "AREA": 238174, "REGION": 2, "LON": 2.632, "SUBREGION": 15, "ISO3": "DZA", "ISO2": "DZ", "FIPS": "AG", "UN": 12, "LAT": 28.163, "POP2005": 32854159}, "184": {"REAL": 5.057095, "INDEX": 1.01875129264, "NAME": "Sierra Leone", "AREA": 7162, "REGION": 2, "LON": -11.792, "SUBREGION": 11, "ISO3": "SLE", "ISO2": "SL", "FIPS": "SL", "UN": 694, "LAT": 8.56, "POP2005": 5586403}, "76": {"REAL": 3.629523, "INDEX": 0.731167053003, "NAME": "Guinea", "AREA": 24572, "REGION": 2, "LON": -10.942, "SUBREGION": 11, "ISO3": "GIN", "ISO2": "GN", "FIPS": "GV", "UN": 324, "LAT": 10.439, "POP2005": 9002656}, "209": {"REAL": 0, "INDEX": 0, "NAME": "Burkina Faso", "AREA": 27360, "REGION": 2, "LON": -1.74, "SUBREGION": 11, "ISO3": "BFA", "ISO2": "BF", "FIPS": "UV", "UN": 854, "LAT": 12.278, "POP2005": 13933363}, "42": {"REAL": 13.8443, "INDEX": 2.78893287958, "NAME": "Cape Verde", "AREA": 403, "REGION": 2, "LON": -23.634, "SUBREGION": 11, "ISO3": "CPV", "ISO2": "CV", "FIPS": "CV", "UN": 132, "LAT": 15.071, "POP2005": 506807}, "182": {"REAL": 14.77128, "INDEX": 2.97567290982, "NAME": "Senegal", "AREA": 19253, "REGION": 2, "LON": -14.881, "SUBREGION": 11, "ISO3": "SEN", "ISO2": "SN", "FIPS": "SG", "UN": 686, "LAT": 15.013, "POP2005": 1177034}, "114": {"REAL": 3.750314, "INDEX": 0.755500388127, "NAME": "Morocco", "AREA": 44630, "REGION": 2, "LON": -5.758, "SUBREGION": 15, "ISO3": "MAR", "ISO2": "MA", "FIPS": "MO", "UN": 504, "LAT": 32.706, "POP2005": 30494991}, "116": {"REAL": 20.43003, "INDEX": 4.11562754331, "NAME": "Mauritania", "AREA": 102522, "REGION": 2, "LON": -10.332, "SUBREGION": 11, "ISO3": "MRT", "ISO2": "MR", "FIPS": "MR", "UN": 478, "LAT": 20.26, "POP2005": 2963105}, "187": {"REAL": 6.608603, "INDEX": 1.33130242734, "NAME": "Spain", "AREA": 49904, "REGION": 150, "LON": -3.649, "SUBREGION": 39, "ISO3": "ESP", "ISO2": "ES", "FIPS": "SP", "UN": 724, "LAT": 40.227, "POP2005": 43397491}, "113": {"REAL": 0, "INDEX": 0, "NAME": "Mali", "AREA": 122019, "REGION": 2, "LON": -3.524, "SUBREGION": 11, "ISO3": "MLI", "ISO2": "ML", "FIPS": "ML", "UN": 466, "LAT": 17.35, "POP2005": 1161109}, "69": {"REAL": 2.301107, "INDEX": 0.463557779861, "NAME": "Ghana", "AREA": 22754, "REGION": 2, "LON": -1.207, "SUBREGION": 11, "ISO3": "GHA", "ISO2": "GH", "FIPS": "GH", "UN": 288, "LAT": 7.96, "POP2005": 2253501}, "165": {"REAL": 5.24842, "INDEX": 1.05729369516, "NAME": "Portugal", "AREA": 9150, "REGION": 150, "LON": -8.058, "SUBREGION": 39, "ISO3": "PRT", "ISO2": "PT", "FIPS": "PO", "UN": 620, "LAT": 40.309, "POP2005": 10528226}, "236": {"REAL": -999.99, "INDEX": -999.99, "NAME": "Western Sahara", "AREA": 0, "REGION": 2, "LON": -13.706, "SUBREGION": 15, "ISO3": "ESH", "ISO2": "EH", "FIPS": "WI", "UN": 732, "LAT": 24.554, "POP2005": 440428}, "167": {"REAL": 18.79771, "INDEX": 3.78679683912, "NAME": "Guinea-Bissau", "AREA": 2812, "REGION": 2, "LON": -14.651, "SUBREGION": 11, "ISO3": "GNB", "ISO2": "GW", "FIPS": "PU", "UN": 624, "LAT": 12.125, "POP2005": 1596929}, "87": {"REAL": 3.245112, "INDEX": 0.653727494688, "NAME": "Cote d'Ivoire", "AREA": 31800, "REGION": 2, "LON": -5.556, "SUBREGION": 11, "ISO3": "CIV", "ISO2": "CI", "FIPS": "IV", "UN": 384, "LAT": 7.632, "POP2005": 18584701}, "104": {"REAL": 3.345975, "INDEX": 0.674046336163, "NAME": "Liberia", "AREA": 9632, "REGION": 2, "LON": -9.657, "SUBREGION": 11, "ISO3": "LBR", "ISO2": "LR", "FIPS": "LI", "UN": 430, "LAT": 6.682, "POP2005": 3441796}}, "grid": ["                                                    !!##########", "                                                   !!!##########", "                                                   !!###########", "                                                   !!!##########", "                         !                         !!!##########", "                                                    !!##########", "                           !!                       !###########", "                            !                      !!!########  ", "                                                       ### ##   ", "                                                        #      $", "                                                       %%%%%# $$", "                                                       %%%%%%%$$", "                                                      %%%%%%%%$$", "                                                     %%%%%%%%%$$", "                                         !          %%%%%%%%%%%$", "                                        !          %%%%%%%%%%%%$", "                                                  %%%%%%%%%%$$$$", "                                                  %%%%%%%%%$$$$$", "                                                  %%%%%%%%%$$$$$", "                                                  %%%%%%%$$$$$$$", "                                                  %%%%%$$$$$$$$$", "                                      #     #   %%%%%$$$$$$$$$$$", "                                       ## # #  %%%%%$$$$$$$$$$$$", "                                      #   #  &&&&&&&$$$$$$$$$$$$", "                                             &&&&&&&'$$$$$$$$$$$", "                                            &&&&&&&&'''$$$$$$$$$", "                                           &&&&&'''''''''$$$$$$$", "                                           &&&&&''''''''''$$$$$$", "                                          &&&&&&'''''''(((($$$$$", "                                         &&&&&&&''''''''((((($$$", "                                         &&&&&&'''''''''(((((($$", "                                         &&&&&''''''''''((((((((", "                                        &&&&&&''''''''''((((((((", "                                        &&&&&&''''''''''((((((((", "                                        ''''''''''''''''((((((((", "                                         '''''''''''''''((((((((", "                                         '''''''''''''''((((((((", "                                         '''''''''''''''((((((((", "                                         ''''''''''''''''(((((((", "                            )            ''''''''''''''''(((((((", "                             ))          ****''''''''''''(((((((", "                               )         *****'''''''''''(((((((", "                             ))         *******''('((((((((((((+", "                                       ********((((((((((((((+++", "                                        ********(((((((((((+++++", "                                        ********((((((((((++++++", "                                        *********(((((((((++++++", "                                         ,,,,---((--(((((+++++++", "                                         ,,,--------((((++++++++", "                                           ---------((((+++++...", "                                            --///---00000++++...", "                                             /////---00000000...", "                                             /////1-000000000...", "                                              ////1-100000000...", "                                               //11110000000....", "                                                 11111000000....", "                                                  11110000000...", "                                                   11100    ..  ", "                                                     1          ", "                                                                ", "                                                                ", "                                                                ", "                                                                ", "                                                                "]}