{"keys": ["", "154", "190", "60", "174", "142", "53", "101", "45", "103", "102", "72", "163", "206", "153", "207", "65", "129", "58", "136", "105", "57", "192", "81", "170", "171", "86", "183", "80", "237", "16", "22", "187", "140", "68", "4", "112", "201", "74"], "data": {"153": {"1990": 10.594475, "Indicator": "CO2 emissions (metric tons per capita)", "UN": 528, "NAME": "Netherlands", "AREA": 3388, "1965": 8.174054, "REGION": 150, "LON": 5.389, "SUBREGION": 155, "ISO3": "NLD", "ISO2": "NL", "FIPS": "NL", "Indicato_1": "EN.ATM.CO2E.PC", "LAT": 52.077, "2011": 10.06449, "POP2005": 1632769}, "81": {"1990": 6.710469, "Indicator": "CO2 emissions (metric tons per capita)", "UN": 348, "NAME": "Hungary", "AREA": 9210, "1965": 6.040037, "REGION": 150, "LON": 19.134, "SUBREGION": 151, "ISO3": "HUN", "ISO2": "HU", "FIPS": "HU", "Indicato_1": "EN.ATM.CO2E.PC", "LAT": 47.07, "2011": 4.86299, "POP2005": 10086387}, "154": {"1990": 7.399753, "Indicator": "CO2 emissions (metric tons per capita)", "UN": 578, "NAME": "Norway", "AREA": 30625, "1965": 4.40749, "REGION": 150, "LON": 8.74, "SUBREGION": 154, "ISO3": "NOR", "ISO2": "NO", "FIPS": "NO", "Indicato_1": "EN.ATM.CO2E.PC", "LAT": 61.152, "2011": 9.192879, "POP2005": 4638836}, "190": {"1990": 6.069368, "Indicator": "CO2 emissions (metric tons per capita)", "UN": 752, "NAME": "Sweden", "AREA": 41033, "1965": 8.097994, "REGION": 150, "LON": 15.27, "SUBREGION": 154, "ISO3": "SWE", "ISO2": "SE", "FIPS": "SW", "Indicato_1": "EN.ATM.CO2E.PC", "LAT": 62.011, "2011": 5.518421, "POP2005": 9038049}, "192": {"1990": 6.345085, "Indicator": "CO2 emissions (metric tons per capita)", "UN": 756, "NAME": "Switzerland", "AREA": 4000, "1965": 5.185732, "REGION": 150, "LON": 7.908, "SUBREGION": 155, "ISO3": "CHE", "ISO2": "CH", "FIPS": "SZ", "Indicato_1": "EN.ATM.CO2E.PC", "LAT": 46.861, "2011": 4.62523, "POP2005": 7424389}, "60": {"1990": 10.377169, "Indicator": "CO2 emissions (metric tons per capita)", "UN": 246, "NAME": "Finland", "AREA": 30459, "1965": 5.549837, "REGION": 150, "LON": 26.272, "SUBREGION": 154, "ISO3": "FIN", "ISO2": "FI", "FIPS": "FI", "Indicato_1": "EN.ATM.CO2E.PC", "LAT": 64.504, "2011": 10.164046, "POP2005": 5246004}, "136": {"1990": 26.197659, "Indicator": "CO2 emissions (metric tons per capita)", "UN": 442, "NAME": "Luxembourg", "AREA": 0, "1965": 36.813804, "REGION": 150, "LON": 6.088, "SUBREGION": 155, "ISO3": "LUX", "ISO2": "LU", "FIPS": "LU", "Indicato_1": "EN.ATM.CO2E.PC", "LAT": 49.771, "2011": 20.897812, "POP2005": 456613}, "112": {"1990": 0, "Indicator": "CO2 emissions (metric tons per capita)", "UN": 807, "NAME": "The former Yugoslav Republic of Macedonia", "AREA": 2543, "1965": 0, "REGION": 150, "LON": 21.698, "SUBREGION": 39, "ISO3": "MKD", "ISO2": "MK", "FIPS": "MK", "Indicato_1": "EN.ATM.CO2E.PC", "LAT": 41.6, "2011": 4.437581, "POP2005": 2033655}, "68": {"1990": 0, "Indicator": "CO2 emissions (metric tons per capita)", "UN": 268, "NAME": "Georgia", "AREA": 6949, "1965": 0, "REGION": 142, "LON": 43.518, "SUBREGION": 145, "ISO3": "GEO", "ISO2": "GE", "FIPS": "GG", "Indicato_1": "EN.ATM.CO2E.PC", "LAT": 42.176, "2011": 1.769151, "POP2005": 4473409}, "80": {"1990": 0, "Indicator": "CO2 emissions (metric tons per capita)", "UN": 191, "NAME": "Croatia", "AREA": 5592, "1965": 0, "REGION": 150, "LON": 16.693, "SUBREGION": 39, "ISO3": "HRV", "ISO2": "HR", "FIPS": "HR", "Indicato_1": "EN.ATM.CO2E.PC", "LAT": 45.723, "2011": 4.80153, "POP2005": 455149}, "174": {"1990": 0, "Indicator": "CO2 emissions (metric tons per capita)", "UN": 643, "NAME": "Russia", "AREA": 1638094, "1965": 0, "REGION": 150, "LON": 96.689, "SUBREGION": 151, "ISO3": "RUS", "ISO2": "RU", "FIPS": "RS", "Indicato_1": "EN.ATM.CO2E.PC", "LAT": 61.988, "2011": 12.647328, "POP2005": 143953092}, "86": {"1990": 7.361705, "Indicator": "CO2 emissions (metric tons per capita)", "UN": 380, "NAME": "Italy", "AREA": 29411, "1965": 3.641502, "REGION": 150, "LON": 12.8, "SUBREGION": 39, "ISO3": "ITA", "ISO2": "IT", "FIPS": "IT", "Indicato_1": "EN.ATM.CO2E.PC", "LAT": 42.7, "2011": 6.702558, "POP2005": 5864636}, "171": {"1990": 0, "Indicator": "CO2 emissions (metric tons per capita)", "UN": 498, "NAME": "Republic of Moldova", "AREA": 3288, "1965": 0, "REGION": 150, "LON": 28.599, "SUBREGION": 151, "ISO3": "MDA", "ISO2": "MD", "FIPS": "MD", "Indicato_1": "EN.ATM.CO2E.PC", "LAT": 47.193, "2011": 1.398822, "POP2005": 3876661}, "170": {"1990": 6.846949, "Indicator": "CO2 emissions (metric tons per capita)", "UN": 642, "NAME": "Romania", "AREA": 22987, "1965": 4.13645, "REGION": 150, "LON": 24.969, "SUBREGION": 151, "ISO3": "ROU", "ISO2": "RO", "FIPS": "RO", "Indicato_1": "EN.ATM.CO2E.PC", "LAT": 45.844, "2011": 4.21056, "POP2005": 21627557}, "237": {"1990": 0, "Indicator": "CO2 emissions (metric tons per capita)", "UN": 688, "NAME": "Serbia", "AREA": 0, "1965": 0, "REGION": 150, "LON": 20.806, "SUBREGION": 39, "ISO3": "SRB", "ISO2": "RS", "FIPS": "RB", "Indicato_1": "EN.ATM.CO2E.PC", "LAT": 44.032, "2011": 6.799115, "POP2005": 9863026}, "207": {"1990": 0, "Indicator": "CO2 emissions (metric tons per capita)", "UN": 804, "NAME": "Ukraine", "AREA": 57935, "1965": 0, "REGION": 150, "LON": 31.388, "SUBREGION": 151, "ISO3": "UKR", "ISO2": "UA", "FIPS": "UP", "Indicato_1": "EN.ATM.CO2E.PC", "LAT": 49.016, "2011": 6.262352, "POP2005": 46917544}, "22": {"1990": 8.690224, "Indicator": "CO2 emissions (metric tons per capita)", "UN": 100, "NAME": "Bulgaria", "AREA": 11063, "1965": 5.645652, "REGION": 150, "LON": 25.231, "SUBREGION": 151, "ISO3": "BGR", "ISO2": "BG", "FIPS": "BU", "Indicato_1": "EN.ATM.CO2E.PC", "LAT": 42.761, "2011": 6.714383, "POP2005": 7744591}, "45": {"1990": 9.770699, "Indicator": "CO2 emissions (metric tons per capita)", "UN": 208, "NAME": "Denmark", "AREA": 4243, "1965": 9.316576, "REGION": 150, "LON": 9.264, "SUBREGION": 154, "ISO3": "DNK", "ISO2": "DK", "FIPS": "DA", "Indicato_1": "EN.ATM.CO2E.PC", "LAT": 56.058, "2011": 7.248329, "POP2005": 5416945}, "183": {"1990": 0, "Indicator": "CO2 emissions (metric tons per capita)", "UN": 705, "NAME": "Slovenia", "AREA": 2014, "1965": 0, "REGION": 150, "LON": 14.827, "SUBREGION": 39, "ISO3": "SVN", "ISO2": "SI", "FIPS": "SI", "Indicato_1": "EN.ATM.CO2E.PC", "LAT": 46.124, "2011": 7.50426, "POP2005": 1999425}, "187": {"1990": 5.626635, "Indicator": "CO2 emissions (metric tons per capita)", "UN": 724, "NAME": "Spain", "AREA": 49904, "1965": 2.22561, "REGION": 150, "LON": -3.649, "SUBREGION": 39, "ISO3": "ESP", "ISO2": "ES", "FIPS": "SP", "Indicato_1": "EN.ATM.CO2E.PC", "LAT": 40.227, "2011": 5.790764, "POP2005": 43397491}, "105": {"1990": 0, "Indicator": "CO2 emissions (metric tons per capita)", "UN": 703, "NAME": "Slovakia", "AREA": 4808, "1965": 0, "REGION": 150, "LON": 19.491, "SUBREGION": 151, "ISO3": "SVK", "ISO2": "SK", "FIPS": "LO", "Indicato_1": "EN.ATM.CO2E.PC", "LAT": 48.707, "2011": 6.367546, "POP2005": 5386995}, "4": {"1990": 2.278387, "Indicator": "CO2 emissions (metric tons per capita)", "UN": 8, "NAME": "Albania", "AREA": 2740, "1965": 1.166099, "REGION": 150, "LON": 20.068, "SUBREGION": 39, "ISO3": "ALB", "ISO2": "AL", "FIPS": "AL", "Indicato_1": "EN.ATM.CO2E.PC", "LAT": 41.143, "2011": 1.607038, "POP2005": 3153731}, "201": {"1990": 2.701355, "Indicator": "CO2 emissions (metric tons per capita)", "UN": 792, "NAME": "Turkey", "AREA": 76963, "1965": 0.883506, "REGION": 142, "LON": 35.179, "SUBREGION": 145, "ISO3": "TUR", "ISO2": "TR", "FIPS": "TU", "Indicato_1": "EN.ATM.CO2E.PC", "LAT": 39.061, "2011": 4.391548, "POP2005": 72969723}, "142": {"1990": 0, "Indicator": "", "UN": 248, "NAME": "\u00c5land Islands", "AREA": 0, "1965": 0, "REGION": 150, "LON": 19.952, "SUBREGION": 154, "ISO3": "ALA", "ISO2": "AX", "FIPS": "", "Indicato_1": "", "LAT": 60.198, "2011": 0, "POP2005": 0}, "140": {"1990": 0, "Indicator": "CO2 emissions (metric tons per capita)", "UN": 499, "NAME": "Montenegro", "AREA": 0, "1965": 0, "REGION": 150, "LON": 19.254, "SUBREGION": 39, "ISO3": "MNE", "ISO2": "ME", "FIPS": "MJ", "Indicato_1": "EN.ATM.CO2E.PC", "LAT": 42.792, "2011": 4.145548, "POP2005": 607969}, "206": {"1990": 9.710497, "Indicator": "CO2 emissions (metric tons per capita)", "UN": 826, "NAME": "United Kingdom", "AREA": 24193, "1965": 11.45616, "REGION": 150, "LON": -1.6, "SUBREGION": 154, "ISO3": "GBR", "ISO2": "GB", "FIPS": "UK", "Indicato_1": "EN.ATM.CO2E.PC", "LAT": 53, "2011": 7.085732, "POP2005": 60244834}, "74": {"1990": 7.313131, "Indicator": "CO2 emissions (metric tons per capita)", "UN": 300, "NAME": "Greece", "AREA": 12890, "1965": 1.991254, "REGION": 150, "LON": 21.766, "SUBREGION": 39, "ISO3": "GRC", "ISO2": "GR", "FIPS": "GR", "Indicato_1": "EN.ATM.CO2E.PC", "LAT": 39.666, "2011": 7.556058, "POP2005": 11099737}, "72": {"1990": 0, "Indicator": "CO2 emissions (metric tons per capita)", "UN": 276, "NAME": "Germany", "AREA": 34895, "1965": 0, "REGION": 150, "LON": 9.851, "SUBREGION": 155, "ISO3": "DEU", "ISO2": "DE", "FIPS": "GM", "Indicato_1": "EN.ATM.CO2E.PC", "LAT": 51.11, "2011": 8.917833, "POP2005": 82652369}, "102": {"1990": 0, "Indicator": "CO2 emissions (metric tons per capita)", "UN": 112, "NAME": "Belarus", "AREA": 20748, "1965": 0, "REGION": 150, "LON": 28.047, "SUBREGION": 151, "ISO3": "BLR", "ISO2": "BY", "FIPS": "BO", "Indicato_1": "EN.ATM.CO2E.PC", "LAT": 53.54, "2011": 6.68251, "POP2005": 9795287}, "129": {"1990": 10.639672, "Indicator": "CO2 emissions (metric tons per capita)", "UN": 56, "NAME": "Belgium", "AREA": 0, "1965": 11.141656, "REGION": 150, "LON": 4.664, "SUBREGION": 155, "ISO3": "BEL", "ISO2": "BE", "FIPS": "BE", "Indicato_1": "EN.ATM.CO2E.PC", "LAT": 50.643, "2011": 8.849398, "POP2005": 10398049}, "101": {"1990": 0, "Indicator": "CO2 emissions (metric tons per capita)", "UN": 428, "NAME": "Latvia", "AREA": 6205, "1965": 0, "REGION": 150, "LON": 25.641, "SUBREGION": 154, "ISO3": "LVA", "ISO2": "LV", "FIPS": "LG", "Indicato_1": "EN.ATM.CO2E.PC", "LAT": 56.858, "2011": 3.786801, "POP2005": 2301793}, "163": {"1990": 9.666499, "Indicator": "CO2 emissions (metric tons per capita)", "UN": 616, "NAME": "Poland", "AREA": 30629, "1965": 7.862051, "REGION": 150, "LON": 19.401, "SUBREGION": 151, "ISO3": "POL", "ISO2": "PL", "FIPS": "PL", "Indicato_1": "EN.ATM.CO2E.PC", "LAT": 52.125, "2011": 8.335787, "POP2005": 38195558}, "58": {"1990": 0, "Indicator": "CO2 emissions (metric tons per capita)", "UN": 203, "NAME": "Czech Republic", "AREA": 7727, "1965": 0, "REGION": 150, "LON": 15.338, "SUBREGION": 151, "ISO3": "CZE", "ISO2": "CZ", "FIPS": "EZ", "Indicato_1": "EN.ATM.CO2E.PC", "LAT": 49.743, "2011": 10.431088, "POP2005": 10191762}, "16": {"1990": 0, "Indicator": "CO2 emissions (metric tons per capita)", "UN": 70, "NAME": "Bosnia and Herzegovina", "AREA": 5120, "1965": 0, "REGION": 150, "LON": 17.786, "SUBREGION": 39, "ISO3": "BIH", "ISO2": "BA", "FIPS": "BK", "Indicato_1": "EN.ATM.CO2E.PC", "LAT": 44.169, "2011": 6.185335, "POP2005": 3915238}, "57": {"1990": 7.518022, "Indicator": "CO2 emissions (metric tons per capita)", "UN": 40, "NAME": "Austria", "AREA": 8245, "1965": 5.252197, "REGION": 150, "LON": 14.912, "SUBREGION": 155, "ISO3": "AUT", "ISO2": "AT", "FIPS": "AU", "Indicato_1": "EN.ATM.CO2E.PC", "LAT": 47.683, "2011": 7.769983, "POP2005": 8291979}, "53": {"1990": 0, "Indicator": "CO2 emissions (metric tons per capita)", "UN": 233, "NAME": "Estonia", "AREA": 4239, "1965": 0, "REGION": 150, "LON": 25.793, "SUBREGION": 154, "ISO3": "EST", "ISO2": "EE", "FIPS": "EN", "Indicato_1": "EN.ATM.CO2E.PC", "LAT": 58.674, "2011": 14.049883, "POP2005": 1344312}, "103": {"1990": 0, "Indicator": "CO2 emissions (metric tons per capita)", "UN": 440, "NAME": "Lithuania", "AREA": 6268, "1965": 0, "REGION": 150, "LON": 23.897, "SUBREGION": 154, "ISO3": "LTU", "ISO2": "LT", "FIPS": "LH", "Indicato_1": "EN.ATM.CO2E.PC", "LAT": 55.336, "2011": 4.537559, "POP2005": 3425077}, "65": {"1990": 6.431055, "Indicator": "CO2 emissions (metric tons per capita)", "UN": 250, "NAME": "France", "AREA": 55010, "1965": 7.044729, "REGION": 150, "LON": 2.55, "SUBREGION": 155, "ISO3": "FRA", "ISO2": "FR", "FIPS": "FR", "Indicato_1": "EN.ATM.CO2E.PC", "LAT": 46.565, "2011": 5.185411, "POP2005": 60990544}}, "grid": ["                  !!!!#############$$$$$$$%%%%%%%%%%%%%%%%% %% %", "                  !!!##############$$$$$$$%%%%%%%%   %%%%% %%%%%", "                  !!!##############$$$$$$$$%%%%%%%        %%%%%%", "                 !!!!############  $$$$$$$%%%%%%%%       %%%%%%%", "                 !!!!###########    $$$$$$%%%%%%%%       %%%%%%%", "                !!!!###########    $$$$$$$%%%%%%%% %%%   %%%%%%%", "                !!!!###########    $$$$$$$%%%%%%%%  %%%% %%%%%%%", "               !!!!!###########   $$$$$$$$$%%%%%%%%% %%%%%%%%%%%", "              !!!!!############  $$$$$$$$$$$%%%%%%%%  %%%%%%%%%%", "            ! !!!!############  $$$$$$$$$$$%%%%%%%%%%%%%%%%%%%%%", "           !!!!!!############   $$$$$$$$$$$%%%%%%%%%%%%%%%%%%%%%", "           !!!!!!###########  $$$$$$$$$$$$$$%%%%%%%%%%%%%%%%%%%%", "          !!!!!!!##########   $$$$$$$$$$$$$$$%%%%%%%%%%%%%%%%%%%", "         !!!!!!!!#########    $$$$$$$$$$$$$$%%%%%%%%%%%%%%%%%%%%", "       !!!!!!!!!!!########    $$$$$$$$$$$$$$%%%%%%%%%%%%%%%%%%%%", "       !!!!!!!!!!########     $$$$$$$$$$$$$%%%%%%%%%%%%%%%%%%%%%", "       !!!!!!!!!!!########     $$$$$$$$$$$%%%%%%%%%%%%%%%%%%%%%%", "       !!!!!!!!!!!#######      $$$$$$$$$$%%%%%%%%%%%%%%%%%%%%%%%", "       !!!!!!!!!!!#######     $$$$$$$$$$%%%%%%%%%%%%%%%%%%%%%%%%", "       !!!!!!!!!!!#########   $$$$$$$$$$%%%%%%%%%%%%%%%%%%%%%%%%", "       !!!!!!!!!!!######### &&$$$$$$$$   %%%%%%%%%%%%%%%%%%%%%%%", "       !!!!!!!!!!###########&   $$      %%%%%%%%%%%%%%%%%%%%%%%%", "       !!!!!!!!!!##########       ''''''%%%%%%%%%%%%%%%%%%%%%%%%", "       !!!!!!!!!###########     ''''''''%%%%%%%%%%%%%%%%%%%%%%%%", "        !!!!!!  ##########      '''''''%%%%%%%%%%%%%%%%%%%%%%%%%", "        !!!!!   #########  #   ''''''''%%%%%%%%%%%%%%%%%%%%%%%%%", "         !!!    #########  #   '  '((''%%%%%%%%%%%%%%%%%%%%%%%%%", "              )) #######  ##   ((  ((((%%%%%%%%%%%%%%%%%%%%%%%%%", "              )))######## #    ((( (((((%%%%%%%%%%%%%%%%%%%%%%%%", "            )))   ####### #   (((((((((%%%%%%%%%%%%%%%%%%%%%%%%%", "            ))))  ######      (**((*((((%%%%%%%%%%%%%%%%%%%%%%%%", "            ))))))######      *******(((%%%%%%%%%%%%%%%%%%%%%%%%", "            ))))))###         *********+++%%%%%%%%%%%%%%%%%%%%%%", "            )))))) ##)        %********+++++%%%%%%%%%%%%%%%%%%%%", "            ,,)))))  )   -- %%%%%*****++++++%%%%%%%%%%%%%%%%%%%%", "            ,,, ,),,   ---- %%%%%****+++++++%%%%%%%%%%%%%%%%%%%%", ".           ,,,,,,,,,-------------***++++++++%%%%%%%%%%%%%%%%%%%", ".         ,,,,,,,,,,--------------+++++++++++%%%%%%%%%%%%%%%%%%%", ".      ////,,,,,,,,,,--------------++++++++++%%%%%%%%%%%%%%%%%%%", "...    ////,,,,,,,,,---------------++++++++++%%%%%%%%%%%%%%%%%%%", "...   /////,,,,,,,,,,-------------+++++++++++%000%%%%%%%%%%%%%%%", "...   ////,,,,,,,,,,,-------------+000++++++00000%%%%%%%%%%%%%%%", "..   /////,,,,,,,,,,,-------------000000000000000%%%%%%%%%%%%%%%", "...12/22/,,,,,,,,,,,,-------------00000000000000000%%%%%%%%%%%%%", ". 112222/2,,,,,,,,,,3,------------00000000000000000%%%%%%%%%%%%%", "  11122222,,,,,,,,33333----------000000000000000000000%%%%%%%%%%", "1111111244,,,,,,,,33333333------0000000000000000000000000%%%%%%%", "1111111114,,,,,,,,,33333335-----00000000000000000000000000%%%%%%", "11111111111,,,,,,,,,33335555555500000000000000000000000000%%%%%%", "11111111111,,,,,,,,,66665555555500000000000000000000000000%%%%%%", "11111111111,7,,,,,,66666555588889000009::0000000000000000%%%%%%%", "11111111117777,,,6,66668888888899999999:::0000000000000%%%%%%%%%", "1111111117777777;;66666<8888888999999999::0000000000000%%%%%%%%%", "1111111117777777;;;<<<<<<888889999999999:00000000000  %%%%%%%%%%", "11111111117777;;;;;<<<<==88>>>9999999999:000  00000   %%%%%%%%%%", "1111111111;;;;;;;;;<<<=====>>>9999999999000   0000000 %%%%%%%%%%", "111111111;;;;;;;;;;=====?==>>>>999999999999    000000%%%%%%%%%%%", "1111111111;;;;;;;;  ====???>>>>>>999999999      00   %%%%%%%%%%%", "1111111111;;; ;;;;;  ===???>>>>>>99999999              %%%%%%%%%", "11111111111    ;;;;;  ===??>>>>>>@@@9@@@@               %%%%%%%%", "1A111   11   1;;;;;;   ===BB>>>>>@@@@@@@                  CCC%%%", "AAAAA       11; ;;;;;     BBB>>>>@@@@@@@                   CCC%C", "AAAAA       11   ;;;;;;;   BD>EEE@@@@@FFF     FFFFF        CCCCC", "AAAA         1    ;;;;;;    DEEEEGGGGGFFFF   FFFFFFFF      FFFCC"]}