{"keys": ["", "154", "190", "60", "174", "142", "53", "101", "45", "103", "102", "72", "163", "206", "153", "207", "65", "129", "58", "136", "105", "57", "192", "81", "170", "171", "86", "183", "80", "237", "16", "22", "187", "140", "68", "4", "112", "201", "74"], "data": {"153": {"REAL": 61.32412, "INDEX": 6, "NAME": "Netherlands", "AREA": 3388, "REGION": 150, "LON": 5.389, "SUBREGION": 155, "ISO3": "NLD", "ISO2": "NL", "FIPS": "NL", "UN": 528, "LAT": 52.077, "POP2005": 1632769}, "81": {"REAL": 0, "INDEX": 0, "NAME": "Hungary", "AREA": 9210, "REGION": 150, "LON": 19.134, "SUBREGION": 151, "ISO3": "HUN", "ISO2": "HU", "FIPS": "HU", "UN": 348, "LAT": 47.07, "POP2005": 10086387}, "154": {"REAL": 9.338212, "INDEX": 1.88118189315, "NAME": "Norway", "AREA": 30625, "REGION": 150, "LON": 8.74, "SUBREGION": 154, "ISO3": "NOR", "ISO2": "NO", "FIPS": "NO", "UN": 578, "LAT": 61.152, "POP2005": 4638836}, "190": {"REAL": 6.312298, "INDEX": 1.2716118141, "NAME": "Sweden", "AREA": 41033, "REGION": 150, "LON": 15.27, "SUBREGION": 154, "ISO3": "SWE", "ISO2": "SE", "FIPS": "SW", "UN": 752, "LAT": 62.011, "POP2005": 9038049}, "192": {"REAL": 0, "INDEX": 0, "NAME": "Switzerland", "AREA": 4000, "REGION": 150, "LON": 7.908, "SUBREGION": 155, "ISO3": "CHE", "ISO2": "CH", "FIPS": "SZ", "UN": 756, "LAT": 46.861, "POP2005": 7424389}, "60": {"REAL": 4.366244, "INDEX": 0.879579426324, "NAME": "Finland", "AREA": 30459, "REGION": 150, "LON": 26.272, "SUBREGION": 154, "ISO3": "FIN", "ISO2": "FI", "FIPS": "FI", "UN": 246, "LAT": 64.504, "POP2005": 5246004}, "136": {"REAL": 0, "INDEX": 0, "NAME": "Luxembourg", "AREA": 0, "REGION": 150, "LON": 6.088, "SUBREGION": 155, "ISO3": "LUX", "ISO2": "LU", "FIPS": "LU", "UN": 442, "LAT": 49.771, "POP2005": 456613}, "112": {"REAL": 0, "INDEX": 0, "NAME": "The former Yugoslav Republic of Macedonia", "AREA": 2543, "REGION": 150, "LON": 21.698, "SUBREGION": 39, "ISO3": "MKD", "ISO2": "MK", "FIPS": "MK", "UN": 807, "LAT": 41.6, "POP2005": 2033655}, "68": {"REAL": 3.271782, "INDEX": 0.659100163577, "NAME": "Georgia", "AREA": 6949, "REGION": 142, "LON": 43.518, "SUBREGION": 145, "ISO3": "GEO", "ISO2": "GE", "FIPS": "GG", "UN": 268, "LAT": 42.176, "POP2005": 4473409}, "80": {"REAL": 3.386141, "INDEX": 0.682137772931, "NAME": "Croatia", "AREA": 5592, "REGION": 150, "LON": 16.693, "SUBREGION": 39, "ISO3": "HRV", "ISO2": "HR", "FIPS": "HR", "UN": 191, "LAT": 45.723, "POP2005": 455149}, "174": {"REAL": 2.877748, "INDEX": 0.579722052855, "NAME": "Russia", "AREA": 1638094, "REGION": 150, "LON": 96.689, "SUBREGION": 151, "ISO3": "RUS", "ISO2": "RU", "FIPS": "RS", "UN": 643, "LAT": 61.988, "POP2005": 143953092}, "86": {"REAL": 7.540614, "INDEX": 1.51905595204, "NAME": "Italy", "AREA": 29411, "REGION": 150, "LON": 12.8, "SUBREGION": 39, "ISO3": "ITA", "ISO2": "IT", "FIPS": "IT", "UN": 380, "LAT": 42.7, "POP2005": 5864636}, "171": {"REAL": 0.9401972, "INDEX": 0.18940263389, "NAME": "Republic of Moldova", "AREA": 3288, "REGION": 150, "LON": 28.599, "SUBREGION": 151, "ISO3": "MDA", "ISO2": "MD", "FIPS": "MD", "UN": 498, "LAT": 47.193, "POP2005": 3876661}, "170": {"REAL": 2.891963, "INDEX": 0.582585663213, "NAME": "Romania", "AREA": 22987, "REGION": 150, "LON": 24.969, "SUBREGION": 151, "ISO3": "ROU", "ISO2": "RO", "FIPS": "RO", "UN": 642, "LAT": 45.844, "POP2005": 21627557}, "237": {"REAL": 0.09034837, "INDEX": 0.018200670291, "NAME": "Serbia", "AREA": 0, "REGION": 150, "LON": 20.806, "SUBREGION": 39, "ISO3": "SRB", "ISO2": "RS", "FIPS": "RB", "UN": 688, "LAT": 44.032, "POP2005": 9863026}, "207": {"REAL": 2.066859, "INDEX": 0.416368543195, "NAME": "Ukraine", "AREA": 57935, "REGION": 150, "LON": 31.388, "SUBREGION": 151, "ISO3": "UKR", "ISO2": "UA", "FIPS": "UP", "UN": 804, "LAT": 49.016, "POP2005": 46917544}, "22": {"REAL": 1.527417, "INDEX": 0.307698005109, "NAME": "Bulgaria", "AREA": 11063, "REGION": 150, "LON": 25.231, "SUBREGION": 151, "ISO3": "BGR", "ISO2": "BG", "FIPS": "BU", "UN": 100, "LAT": 42.761, "POP2005": 7744591}, "45": {"REAL": 18.50849, "INDEX": 3.72853349843, "NAME": "Denmark", "AREA": 4243, "REGION": 150, "LON": 9.264, "SUBREGION": 154, "ISO3": "DNK", "ISO2": "DK", "FIPS": "DA", "UN": 208, "LAT": 56.058, "POP2005": 5416945}, "183": {"REAL": 1.304086, "INDEX": 0.262707997024, "NAME": "Slovenia", "AREA": 2014, "REGION": 150, "LON": 14.827, "SUBREGION": 39, "ISO3": "SVN", "ISO2": "SI", "FIPS": "SI", "UN": 705, "LAT": 46.124, "POP2005": 1999425}, "187": {"REAL": 6.608603, "INDEX": 1.33130242734, "NAME": "Spain", "AREA": 49904, "REGION": 150, "LON": -3.649, "SUBREGION": 39, "ISO3": "ESP", "ISO2": "ES", "FIPS": "SP", "UN": 724, "LAT": 40.227, "POP2005": 43397491}, "105": {"REAL": 0, "INDEX": 0, "NAME": "Slovakia", "AREA": 4808, "REGION": 150, "LON": 19.491, "SUBREGION": 151, "ISO3": "SVK", "ISO2": "SK", "FIPS": "LO", "UN": 703, "LAT": 48.707, "POP2005": 5386995}, "4": {"REAL": 8.206302, "INDEX": 1.65315873446, "NAME": "Albania", "AREA": 2740, "REGION": 150, "LON": 20.068, "SUBREGION": 39, "ISO3": "ALB", "ISO2": "AL", "FIPS": "AL", "UN": 8, "LAT": 41.143, "POP2005": 3153731}, "201": {"REAL": 2.383424, "INDEX": 0.480140531452, "NAME": "Turkey", "AREA": 76963, "REGION": 142, "LON": 35.179, "SUBREGION": 145, "ISO3": "TUR", "ISO2": "TR", "FIPS": "TU", "UN": 792, "LAT": 39.061, "POP2005": 72969723}, "142": {"REAL": -999.99, "INDEX": -999.99, "NAME": "\u00c5land Islands", "AREA": 0, "REGION": 150, "LON": 19.952, "SUBREGION": 154, "ISO3": "ALA", "ISO2": "AX", "FIPS": "", "UN": 248, "LAT": 60.198, "POP2005": 0}, "140": {"REAL": -999.99, "INDEX": -999.99, "NAME": "Montenegro", "AREA": 0, "REGION": 150, "LON": 19.254, "SUBREGION": 39, "ISO3": "MNE", "ISO2": "ME", "FIPS": "MJ", "UN": 499, "LAT": 42.792, "POP2005": 607969}, "206": {"REAL": 8.643258, "INDEX": 1.74118347788, "NAME": "United Kingdom", "AREA": 24193, "REGION": 150, "LON": -1.6, "SUBREGION": 154, "ISO3": "GBR", "ISO2": "GB", "FIPS": "UK", "UN": 826, "LAT": 53, "POP2005": 60244834}, "74": {"REAL": 9.900933, "INDEX": 1.9945419835, "NAME": "Greece", "AREA": 12890, "REGION": 150, "LON": 21.766, "SUBREGION": 39, "ISO3": "GRC", "ISO2": "GR", "FIPS": "GR", "UN": 300, "LAT": 39.666, "POP2005": 11099737}, "72": {"REAL": 4.417399, "INDEX": 0.889884596066, "NAME": "Germany", "AREA": 34895, "REGION": 150, "LON": 9.851, "SUBREGION": 155, "ISO3": "DEU", "ISO2": "DE", "FIPS": "GM", "UN": 276, "LAT": 51.11, "POP2005": 82652369}, "102": {"REAL": 0, "INDEX": 0, "NAME": "Belarus", "AREA": 20748, "REGION": 150, "LON": 28.047, "SUBREGION": 151, "ISO3": "BLR", "ISO2": "BY", "FIPS": "BO", "UN": 112, "LAT": 53.54, "POP2005": 9795287}, "129": {"REAL": 14.32144, "INDEX": 2.88505268586, "NAME": "Belgium", "AREA": 0, "REGION": 150, "LON": 4.664, "SUBREGION": 155, "ISO3": "BEL", "ISO2": "BE", "FIPS": "BE", "UN": 56, "LAT": 50.643, "POP2005": 10398049}, "101": {"REAL": 23.94287, "INDEX": 4.82328881738, "NAME": "Latvia", "AREA": 6205, "REGION": 150, "LON": 25.641, "SUBREGION": 154, "ISO3": "LVA", "ISO2": "LV", "FIPS": "LG", "UN": 428, "LAT": 56.858, "POP2005": 2301793}, "163": {"REAL": 2.492365, "INDEX": 0.502086685236, "NAME": "Poland", "AREA": 30629, "REGION": 150, "LON": 19.401, "SUBREGION": 151, "ISO3": "POL", "ISO2": "PL", "FIPS": "PL", "UN": 616, "LAT": 52.125, "POP2005": 38195558}, "58": {"REAL": 0, "INDEX": 0, "NAME": "Czech Republic", "AREA": 7727, "REGION": 150, "LON": 15.338, "SUBREGION": 151, "ISO3": "CZE", "ISO2": "CZ", "FIPS": "EZ", "UN": 203, "LAT": 49.743, "POP2005": 10191762}, "16": {"REAL": 0.07920434, "INDEX": 0.0159557065385, "NAME": "Bosnia and Herzegovina", "AREA": 5120, "REGION": 150, "LON": 17.786, "SUBREGION": 39, "ISO3": "BIH", "ISO2": "BA", "FIPS": "BK", "UN": 70, "LAT": 44.169, "POP2005": 3915238}, "57": {"REAL": 0, "INDEX": 0, "NAME": "Austria", "AREA": 8245, "REGION": 150, "LON": 14.912, "SUBREGION": 155, "ISO3": "AUT", "ISO2": "AT", "FIPS": "AU", "UN": 40, "LAT": 47.683, "POP2005": 8291979}, "53": {"REAL": 7.198966, "INDEX": 1.45023099589, "NAME": "Estonia", "AREA": 4239, "REGION": 150, "LON": 25.793, "SUBREGION": 154, "ISO3": "EST", "ISO2": "EE", "FIPS": "EN", "UN": 233, "LAT": 58.674, "POP2005": 1344312}, "103": {"REAL": 4.010017, "INDEX": 0.807817532051, "NAME": "Lithuania", "AREA": 6268, "REGION": 150, "LON": 23.897, "SUBREGION": 154, "ISO3": "LTU", "ISO2": "LT", "FIPS": "LH", "UN": 440, "LAT": 55.336, "POP2005": 3425077}, "65": {"REAL": 4.037874, "INDEX": 0.813429321973, "NAME": "France", "AREA": 55010, "REGION": 150, "LON": 2.55, "SUBREGION": 155, "ISO3": "FRA", "ISO2": "FR", "FIPS": "FR", "UN": 250, "LAT": 46.565, "POP2005": 60990544}}, "grid": ["                  !!!!#############$$$$$$$%%%%%%%%%%%%%%%%% %% %", "                  !!!##############$$$$$$$%%%%%%%%   %%%%% %%%%%", "                  !!!##############$$$$$$$$%%%%%%%        %%%%%%", "                 !!!!############  $$$$$$$%%%%%%%%       %%%%%%%", "                 !!!!###########    $$$$$$%%%%%%%%       %%%%%%%", "                !!!!###########    $$$$$$$%%%%%%%% %%%   %%%%%%%", "                !!!!###########    $$$$$$$%%%%%%%%  %%%% %%%%%%%", "               !!!!!###########   $$$$$$$$$%%%%%%%%% %%%%%%%%%%%", "              !!!!!############  $$$$$$$$$$$%%%%%%%%  %%%%%%%%%%", "            ! !!!!############  $$$$$$$$$$$%%%%%%%%%%%%%%%%%%%%%", "           !!!!!!############   $$$$$$$$$$$%%%%%%%%%%%%%%%%%%%%%", "           !!!!!!###########  $$$$$$$$$$$$$$%%%%%%%%%%%%%%%%%%%%", "          !!!!!!!##########   $$$$$$$$$$$$$$$%%%%%%%%%%%%%%%%%%%", "         !!!!!!!!#########    $$$$$$$$$$$$$$%%%%%%%%%%%%%%%%%%%%", "       !!!!!!!!!!!########    $$$$$$$$$$$$$$%%%%%%%%%%%%%%%%%%%%", "       !!!!!!!!!!########     $$$$$$$$$$$$$%%%%%%%%%%%%%%%%%%%%%", "       !!!!!!!!!!!########     $$$$$$$$$$$%%%%%%%%%%%%%%%%%%%%%%", "       !!!!!!!!!!!#######      $$$$$$$$$$%%%%%%%%%%%%%%%%%%%%%%%", "       !!!!!!!!!!!#######     $$$$$$$$$$%%%%%%%%%%%%%%%%%%%%%%%%", "       !!!!!!!!!!!#########   $$$$$$$$$$%%%%%%%%%%%%%%%%%%%%%%%%", "       !!!!!!!!!!!######### &&$$$$$$$$   %%%%%%%%%%%%%%%%%%%%%%%", "       !!!!!!!!!!###########&   $$      %%%%%%%%%%%%%%%%%%%%%%%%", "       !!!!!!!!!!##########       ''''''%%%%%%%%%%%%%%%%%%%%%%%%", "       !!!!!!!!!###########     ''''''''%%%%%%%%%%%%%%%%%%%%%%%%", "        !!!!!!  ##########      '''''''%%%%%%%%%%%%%%%%%%%%%%%%%", "        !!!!!   #########  #   ''''''''%%%%%%%%%%%%%%%%%%%%%%%%%", "         !!!    #########  #   '  '((''%%%%%%%%%%%%%%%%%%%%%%%%%", "              )) #######  ##   ((  ((((%%%%%%%%%%%%%%%%%%%%%%%%%", "              )))######## #    ((( (((((%%%%%%%%%%%%%%%%%%%%%%%%", "            )))   ####### #   (((((((((%%%%%%%%%%%%%%%%%%%%%%%%%", "            ))))  ######      (**((*((((%%%%%%%%%%%%%%%%%%%%%%%%", "            ))))))######      *******(((%%%%%%%%%%%%%%%%%%%%%%%%", "            ))))))###         *********+++%%%%%%%%%%%%%%%%%%%%%%", "            )))))) ##)        %********+++++%%%%%%%%%%%%%%%%%%%%", "            ,,)))))  )   -- %%%%%*****++++++%%%%%%%%%%%%%%%%%%%%", "            ,,, ,),,   ---- %%%%%****+++++++%%%%%%%%%%%%%%%%%%%%", ".           ,,,,,,,,,-------------***++++++++%%%%%%%%%%%%%%%%%%%", ".         ,,,,,,,,,,--------------+++++++++++%%%%%%%%%%%%%%%%%%%", ".      ////,,,,,,,,,,--------------++++++++++%%%%%%%%%%%%%%%%%%%", "...    ////,,,,,,,,,---------------++++++++++%%%%%%%%%%%%%%%%%%%", "...   /////,,,,,,,,,,-------------+++++++++++%000%%%%%%%%%%%%%%%", "...   ////,,,,,,,,,,,-------------+000++++++00000%%%%%%%%%%%%%%%", "..   /////,,,,,,,,,,,-------------000000000000000%%%%%%%%%%%%%%%", "...12/22/,,,,,,,,,,,,-------------00000000000000000%%%%%%%%%%%%%", ". 112222/2,,,,,,,,,,3,------------00000000000000000%%%%%%%%%%%%%", "  11122222,,,,,,,,33333----------000000000000000000000%%%%%%%%%%", "1111111244,,,,,,,,33333333------0000000000000000000000000%%%%%%%", "1111111114,,,,,,,,,33333335-----00000000000000000000000000%%%%%%", "11111111111,,,,,,,,,33335555555500000000000000000000000000%%%%%%", "11111111111,,,,,,,,,66665555555500000000000000000000000000%%%%%%", "11111111111,7,,,,,,66666555588889000009::0000000000000000%%%%%%%", "11111111117777,,,6,66668888888899999999:::0000000000000%%%%%%%%%", "1111111117777777;;66666<8888888999999999::0000000000000%%%%%%%%%", "1111111117777777;;;<<<<<<888889999999999:00000000000  %%%%%%%%%%", "11111111117777;;;;;<<<<==88>>>9999999999:000  00000   %%%%%%%%%%", "1111111111;;;;;;;;;<<<=====>>>9999999999000   0000000 %%%%%%%%%%", "111111111;;;;;;;;;;=====?==>>>>999999999999    000000%%%%%%%%%%%", "1111111111;;;;;;;;  ====???>>>>>>999999999      00   %%%%%%%%%%%", "1111111111;;; ;;;;;  ===???>>>>>>99999999              %%%%%%%%%", "11111111111    ;;;;;  ===??>>>>>>@@@9@@@@               %%%%%%%%", "1A111   11   1;;;;;;   ===BB>>>>>@@@@@@@                  CCC%%%", "AAAAA       11; ;;;;;     BBB>>>>@@@@@@@                   CCC%C", "AAAAA       11   ;;;;;;;   BD>EEE@@@@@FFF     FFFFF        CCCCC", "AAAA         1    ;;;;;;    DEEEEGGGGGFFFF   FFFFFFFF      FFFCC"]}