{"keys": ["", "199", "67", "27", "28", "205", "92", "186", "52", "204", "175", "29", "6", "222", "123", "122", "37", "223", "108", "217", "181", "179", "220", "180"], "data": {"217": {"REAL": 2.903213, "INDEX": 0.584851974612, "NAME": "Namibia", "AREA": 82329, "REGION": 2, "LON": 17.218, "SUBREGION": 18, "ISO3": "NAM", "ISO2": "NA", "FIPS": "WA", "UN": 516, "LAT": -22.133, "POP2005": 2019677}, "199": {"REAL": 11.09405, "INDEX": 2.23489528634, "NAME": "Sao Tome and Principe", "AREA": 96, "REGION": 2, "LON": 6.629, "SUBREGION": 17, "ISO3": "STP", "ISO2": "ST", "FIPS": "TP", "UN": 678, "LAT": 0.201, "POP2005": 152622}, "179": {"REAL": 0.4960424, "INDEX": 0.0999276929151, "NAME": "South Africa", "AREA": 121447, "REGION": 2, "LON": 23.121, "SUBREGION": 18, "ISO3": "ZAF", "ISO2": "ZA", "FIPS": "SF", "UN": 710, "LAT": -30.558, "POP2005": 47938663}, "67": {"REAL": 5.923836, "INDEX": 1.19335618223, "NAME": "Gabon", "AREA": 25767, "REGION": 2, "LON": 11.797, "SUBREGION": 17, "ISO3": "GAB", "ISO2": "GA", "FIPS": "GB", "UN": 266, "LAT": -0.591, "POP2005": 1290693}, "175": {"REAL": 0, "INDEX": 0, "NAME": "Rwanda", "AREA": 2467, "REGION": 2, "LON": 29.917, "SUBREGION": 14, "ISO3": "RWA", "ISO2": "RW", "FIPS": "RW", "UN": 646, "LAT": -1.998, "POP2005": 9233793}, "27": {"REAL": 0.9661633, "INDEX": 0.194633502193, "NAME": "Congo", "AREA": 34150, "REGION": 2, "LON": 15.986, "SUBREGION": 17, "ISO3": "COG", "ISO2": "CG", "FIPS": "CF", "UN": 178, "LAT": -0.055, "POP2005": 3609851}, "28": {"REAL": 0.03694646, "INDEX": 0.00744286074977, "NAME": "Democratic Republic of the Congo", "AREA": 226705, "REGION": 2, "LON": 23.654, "SUBREGION": 17, "ISO3": "COD", "ISO2": "CD", "FIPS": "CG", "UN": 180, "LAT": -2.876, "POP2005": 58740547}, "29": {"REAL": 0, "INDEX": 0, "NAME": "Burundi", "AREA": 2568, "REGION": 2, "LON": 29.887, "SUBREGION": 14, "ISO3": "BDI", "ISO2": "BI", "FIPS": "BY", "UN": 108, "LAT": -3.356, "POP2005": 7858791}, "180": {"REAL": 0, "INDEX": 0, "NAME": "Lesotho", "AREA": 3035, "REGION": 2, "LON": 28.243, "SUBREGION": 18, "ISO3": "LSO", "ISO2": "LS", "FIPS": "LT", "UN": 426, "LAT": -29.581, "POP2005": 1980831}, "181": {"REAL": 0, "INDEX": 0, "NAME": "Botswana", "AREA": 56673, "REGION": 2, "LON": 23.815, "SUBREGION": 18, "ISO3": "BWA", "ISO2": "BW", "FIPS": "BC", "UN": 72, "LAT": -22.182, "POP2005": 1835938}, "186": {"REAL": 2.151358, "INDEX": 0.433390858472, "NAME": "Somalia", "AREA": 62734, "REGION": 2, "LON": 48.316, "SUBREGION": 14, "ISO3": "SOM", "ISO2": "SO", "FIPS": "SO", "UN": 706, "LAT": 9.774, "POP2005": 8196395}, "6": {"REAL": 2.056975, "INDEX": 0.414377412363, "NAME": "Angola", "AREA": 124670, "REGION": 2, "LON": 17.544, "SUBREGION": 17, "ISO3": "AGO", "ISO2": "AO", "FIPS": "AO", "UN": 24, "LAT": -12.296, "POP2005": 16095214}, "205": {"REAL": 0, "INDEX": 0, "NAME": "Uganda", "AREA": 19710, "REGION": 2, "LON": 32.386, "SUBREGION": 14, "ISO3": "UGA", "ISO2": "UG", "FIPS": "UG", "UN": 800, "LAT": 1.28, "POP2005": 28947181}, "204": {"REAL": 1.292692, "INDEX": 0.260412676839, "NAME": "United Republic of Tanzania", "AREA": 88359, "REGION": 2, "LON": 34.823, "SUBREGION": 14, "ISO3": "TZA", "ISO2": "TZ", "FIPS": "TZ", "UN": 834, "LAT": -6.27, "POP2005": 38477873}, "122": {"REAL": 6.479798, "INDEX": 1.3053546727, "NAME": "Mozambique", "AREA": 78409, "REGION": 2, "LON": 37.923, "SUBREGION": 14, "ISO3": "MOZ", "ISO2": "MZ", "FIPS": "MZ", "UN": 508, "LAT": -14.422, "POP2005": 20532675}, "123": {"REAL": 0, "INDEX": 0, "NAME": "Malawi", "AREA": 9408, "REGION": 2, "LON": 33.808, "SUBREGION": 14, "ISO3": "MWI", "ISO2": "MW", "FIPS": "MI", "UN": 454, "LAT": -13.4, "POP2005": 13226091}, "92": {"REAL": 1.351918, "INDEX": 0.272343748741, "NAME": "Kenya", "AREA": 56914, "REGION": 2, "LON": 37.858, "SUBREGION": 14, "ISO3": "KEN", "ISO2": "KE", "FIPS": "KE", "UN": 404, "LAT": 0.53, "POP2005": 35598952}, "223": {"REAL": 0, "INDEX": 0, "NAME": "Zimbabwe", "AREA": 38685, "REGION": 2, "LON": 29.872, "SUBREGION": 14, "ISO3": "ZWE", "ISO2": "ZW", "FIPS": "ZI", "UN": 716, "LAT": -19, "POP2005": 13119679}, "222": {"REAL": 0, "INDEX": 0, "NAME": "Zambia", "AREA": 74339, "REGION": 2, "LON": 26.32, "SUBREGION": 14, "ISO3": "ZMB", "ISO2": "ZM", "FIPS": "ZA", "UN": 894, "LAT": -14.614, "POP2005": 11478317}, "220": {"REAL": 0, "INDEX": 0, "NAME": "Swaziland", "AREA": 1720, "REGION": 2, "LON": 31.497, "SUBREGION": 18, "ISO3": "SWZ", "ISO2": "SZ", "FIPS": "WZ", "UN": 748, "LAT": -26.562, "POP2005": 1124529}, "37": {"REAL": 14.03701, "INDEX": 2.82775429021, "NAME": "Comoros", "AREA": 223, "REGION": 2, "LON": 43.337, "SUBREGION": 14, "ISO3": "COM", "ISO2": "KM", "FIPS": "CN", "UN": 174, "LAT": -11.758, "POP2005": 797902}, "108": {"REAL": 2.034768, "INDEX": 0.409903814387, "NAME": "Madagascar", "AREA": 58154, "REGION": 2, "LON": 46.706, "SUBREGION": 14, "ISO3": "MDG", "ISO2": "MG", "FIPS": "MA", "UN": 450, "LAT": -19.374, "POP2005": 18642586}, "52": {"REAL": 2.6232, "INDEX": 0.528443383177, "NAME": "Equatorial Guinea", "AREA": 2805, "REGION": 2, "LON": 10.488, "SUBREGION": 17, "ISO3": "GNQ", "ISO2": "GQ", "FIPS": "EK", "UN": 226, "LAT": 1.607, "POP2005": 484098}}, "grid": ["         !   ########$$$$%%%%%%%%%%%%%%%%%&&&&&&&'''''''''((((  ", "            #########$$$$%%%%%%%%%%%%%%%%%&&&&&&&'''''''''(((   ", "        )    ########$$$%%%%%%%%%%%%%%%%%%&&*******''''''''(    ", "             ########$$%%%%%%%%%%%%%%%%%%+++*********''''''     ", "              ###$#$$$$%%%%%%%%%%%%%%%%%%++***********''''      ", "               ###$$$$$%%%%%%%%%%%%%%%%%%%,************''       ", "                $$$$%$%%%%%%%%%%%%%%%%%%%%**************'       ", "                 $%%%%%%%%%%%%%%%%%%%%%%%%***************       ", "                 %%%%%%%%%%%%%%%%%%%%%%%%%***************       ", "                  ------%%%%%%%%%%%%%%%%%%***************       ", "                  ------%%%%%%%%%%%%%%%%%%%**************       ", "                   ------%%%---%%%%%%%%%%%%**************       ", "                   ------------%%%%%%%%%%....************       ", "                   ------------%%%%%%%%%.......**********       ", "                   ------------%%%%%%%%%%.......*********       ", "                   -------------%%%%%%%%%........*********      ", "                    ------------%%...%%%......../********0      ", "                    --------------......%.......//00*00000    11", "                   ---------------.......%......//00000000      ", "                  -------------.................//00000000      ", "                  -------------.................///00000000     ", "                 --------------...............00////0000000     ", "                 --------------.............00000///0000000     ", "                 --------------..........22222000///000000     3", "                 ---------------........2222222200/000000      3", "                 4444444444------......2222222220000000        3", "                 444444444444444444422222222222200000          3", "                 444444444444445555552222222222200000          3", "                  444444444444455555522222222220000            3", "                   4444444444445555555222222222200             3", "                   4444444444445555555522222222000             3", "                    4444444444455555555522222220000           33", "                    4444444444455555555552222200000           33", "                     444444445555555555555666000000           33", "                     444444445555555555566666600000           33", "                     444444445555555555666666600000           33", "                     444444445555555556666666600000           33", "                     4444444455555555666666666000              3", "                     444444446555665566666667700                ", "                     444444445556666666666667700                ", "                      4444444666666666666666776                 ", "                      4444444666666666666666666                 ", "                       444444666666666666666666                 ", "                        6644666666666668886666                  ", "                        666666666666668888666                   ", "                         66666666666666888666                   ", "                         6666666666666668666                    ", "                         666666666666666666                     ", "                          6666666666666666                      ", "                          666666666666666                       ", "                          66666666666666                        ", "                          6666666666666                         ", "                          666666                                ", "                            6                                   ", "                                                                ", "                                                                ", "                                                                ", "                                                                ", "                                                                ", "                                                                ", "                                                                ", "                                                                ", "                                                                ", "                                                                "]}