{"keys": ["", "69", "24", "167", "199", "80", "197", "50", "63", "222", "179", "158", "109", "114", "2", "13", "226", "110", "108", "41", "225", "34", "76", "47", "166", "205", "73", "77", "215", "42", "175", "151", "38", "203", "200", "204", "160", "74", "39", "157", "75", "176", "100", "85", "150", "57", "93", "21"], "data": {"151": {"REAL": 0.83359836717, "INDEX": 1.2057804541, "Indicator": "CO2 emissions (metric tons per capita)", "UN": 558, "NAME": "Nicaragua", "AREA": 12140, "1965": 0.378622, "REGION": 19, "LON": -85.034, "SUBREGION": 13, "1990": 0.615924, "ISO3": "NIC", "ISO2": "NI", "FIPS": "NU", "Indicato_1": "EN.ATM.CO2E.PC", "LAT": 12.84, "2011": 0.829634, "POP2005": 5462539}, "150": {"REAL": 0.33983542736, "INDEX": 0.49156396181, "Indicator": "CO2 emissions (metric tons per capita)", "UN": 740, "NAME": "Suriname", "AREA": 15600, "1965": 2.394532, "REGION": 19, "LON": -55.912, "SUBREGION": 5, "1990": 4.453437, "ISO3": "SUR", "ISO2": "SR", "FIPS": "NS", "Indicato_1": "EN.ATM.CO2E.PC", "LAT": 4.127, "2011": 3.606356, "POP2005": 452468}, "215": {"REAL": -999.99, "INDEX": -999.99, "Indicator": "", "UN": 312, "NAME": "Guadeloupe", "AREA": 169, "1965": 0, "REGION": 19, "LON": -61.441, "SUBREGION": 29, "1990": 0, "ISO3": "GLP", "ISO2": "GP", "FIPS": "GP", "Indicato_1": "", "LAT": 16.286, "2011": 0, "POP2005": 438403}, "199": {"REAL": 0.21415572253, "INDEX": 0.30977122142, "Indicator": "CO2 emissions (metric tons per capita)", "UN": 840, "NAME": "United States", "AREA": 915896, "1965": 17.451725, "REGION": 19, "LON": -98.606, "SUBREGION": 21, "1990": 19.323368, "ISO3": "USA", "ISO2": "US", "FIPS": "US", "Indicato_1": "EN.ATM.CO2E.PC", "LAT": 39.622, "2011": 17.020216, "POP2005": 299846449}, "157": {"REAL": 0.19636145162, "INDEX": 0.28403222659, "Indicator": "CO2 emissions (metric tons per capita)", "UN": 591, "NAME": "Panama", "AREA": 7443, "1965": 1.159088, "REGION": 19, "LON": -80.92, "SUBREGION": 13, "1990": 1.113323, "ISO3": "PAN", "ISO2": "PA", "FIPS": "PM", "Indicato_1": "EN.ATM.CO2E.PC", "LAT": 8.384, "2011": 2.584354, "POP2005": 3231502}, "158": {"REAL": 0.0018023353028, "INDEX": 0.0026070356727, "Indicator": "CO2 emissions (metric tons per capita)", "UN": 620, "NAME": "Portugal", "AREA": 9150, "1965": 1.288948, "REGION": 150, "LON": -8.058, "SUBREGION": 39, "1990": 4.22671, "ISO3": "PRT", "ISO2": "PT", "FIPS": "PO", "Indicato_1": "EN.ATM.CO2E.PC", "LAT": 40.309, "2011": 4.70985, "POP2005": 10528226}, "197": {"REAL": 0.032407018945, "INDEX": 0.046875991556, "Indicator": "CO2 emissions (metric tons per capita)", "UN": 826, "NAME": "United Kingdom", "AREA": 24193, "1965": 11.45616, "REGION": 150, "LON": -1.6, "SUBREGION": 154, "1990": 9.710497, "ISO3": "GBR", "ISO2": "GB", "FIPS": "UK", "Indicato_1": "EN.ATM.CO2E.PC", "LAT": 53, "2011": 7.085732, "POP2005": 60244834}, "114": {"REAL": 0.14984327733, "INDEX": 0.21674478035, "Indicator": "CO2 emissions (metric tons per capita)", "UN": 484, "NAME": "Mexico", "AREA": 190869, "1965": 1.659656, "REGION": 19, "LON": -102.535, "SUBREGION": 13, "1990": 3.65128, "ISO3": "MEX", "ISO2": "MX", "FIPS": "MX", "Indicato_1": "EN.ATM.CO2E.PC", "LAT": 23.951, "2011": 3.908712, "POP2005": 104266392}, "63": {"REAL": 0.0057176459293, "INDEX": 0.0082704405102, "Indicator": "CO2 emissions (metric tons per capita)", "UN": 250, "NAME": "France", "AREA": 55010, "1965": 7.044729, "REGION": 150, "LON": 2.55, "SUBREGION": 155, "1990": 6.431055, "ISO3": "FRA", "ISO2": "FR", "FIPS": "FR", "Indicato_1": "EN.ATM.CO2E.PC", "LAT": 46.565, "2011": 5.185411, "POP2005": 60990544}, "110": {"REAL": 3.0819736499, "INDEX": 4.4580024789, "Indicator": "CO2 emissions (metric tons per capita)", "UN": 478, "NAME": "Mauritania", "AREA": 102522, "1965": 0.162572, "REGION": 2, "LON": -10.332, "SUBREGION": 11, "1990": 1.317043, "ISO3": "MRT", "ISO2": "MR", "FIPS": "MR", "Indicato_1": "EN.ATM.CO2E.PC", "LAT": 20.26, "2011": 0.623915, "POP2005": 2963105}, "179": {"REAL": 0.72919351834, "INDEX": 1.0547612931, "Indicator": "CO2 emissions (metric tons per capita)", "UN": 724, "NAME": "Spain", "AREA": 49904, "1965": 2.22561, "REGION": 150, "LON": -3.649, "SUBREGION": 39, "1990": 5.626635, "ISO3": "ESP", "ISO2": "ES", "FIPS": "SP", "Indicato_1": "EN.ATM.CO2E.PC", "LAT": 40.227, "2011": 5.790764, "POP2005": 43397491}, "69": {"REAL": -999.99, "INDEX": -999.99, "Indicator": "CO2 emissions (metric tons per capita)", "UN": 304, "NAME": "Greenland", "AREA": 41045, "1965": 8.793316, "REGION": 19, "LON": -41.391, "SUBREGION": 21, "1990": 10.024892, "ISO3": "GRL", "ISO2": "GL", "FIPS": "GL", "Indicato_1": "EN.ATM.CO2E.PC", "LAT": 74.719, "2011": 12.440341, "POP2005": 57475}, "176": {"REAL": 0.24701628375, "INDEX": 0.35730325121, "Indicator": "CO2 emissions (metric tons per capita)", "UN": 694, "NAME": "Sierra Leone", "AREA": 7162, "1965": 0.121661, "REGION": 2, "LON": -11.792, "SUBREGION": 11, "1990": 0.09615, "ISO3": "SLE", "ISO2": "SL", "FIPS": "SL", "Indicato_1": "EN.ATM.CO2E.PC", "LAT": 8.56, "2011": 0.15317, "POP2005": 5586403}, "175": {"REAL": 0.59767011501, "INDEX": 0.86451578011, "Indicator": "CO2 emissions (metric tons per capita)", "UN": 686, "NAME": "Senegal", "AREA": 19253, "1965": 0.464221, "REGION": 2, "LON": -14.881, "SUBREGION": 11, "1990": 0.423597, "ISO3": "SEN", "ISO2": "SN", "FIPS": "SG", "Indicato_1": "EN.ATM.CO2E.PC", "LAT": 15.013, "2011": 0.589493, "POP2005": 1177034}, "93": {"REAL": 5.0029987648, "INDEX": 6, "Indicator": "CO2 emissions (metric tons per capita)", "UN": 296, "NAME": "Kiribati", "AREA": 73, "1965": 0.290409, "REGION": 9, "LON": 175.036, "SUBREGION": 57, "1990": 0.309713, "ISO3": "KIR", "ISO2": "KI", "FIPS": "KR", "Indicato_1": "EN.ATM.CO2E.PC", "LAT": -1.508, "2011": 0.628101, "POP2005": 92003}, "166": {"REAL": 0.016497321257, "INDEX": 0.023862987621, "Indicator": "CO2 emissions (metric tons per capita)", "UN": 630, "NAME": "Puerto Rico", "AREA": 887, "1965": 0, "REGION": 19, "LON": -66.466, "SUBREGION": 29, "1990": 0, "ISO3": "PRI", "ISO2": "PR", "FIPS": "RQ", "Indicato_1": "EN.ATM.CO2E.PC", "LAT": 18.221, "2011": 0, "POP2005": 3946779}, "85": {"REAL": 0.00075740363912, "INDEX": 0.0010955665701, "Indicator": "CO2 emissions (metric tons per capita)", "UN": 384, "NAME": "Cote d'Ivoire", "AREA": 31800, "1965": 0.278084, "REGION": 2, "LON": -5.556, "SUBREGION": 11, "1990": 0.478509, "ISO3": "CIV", "ISO2": "CI", "FIPS": "IV", "Indicato_1": "EN.ATM.CO2E.PC", "LAT": 7.632, "2011": 0.33247, "POP2005": 18584701}, "24": {"REAL": 0.010743237667, "INDEX": 0.015539840891, "Indicator": "CO2 emissions (metric tons per capita)", "UN": 124, "NAME": "Canada", "AREA": 909351, "1965": 12.814001, "REGION": 19, "LON": -109.433, "SUBREGION": 21, "1990": 15.65907, "ISO3": "CAN", "ISO2": "CA", "FIPS": "CA", "Indicato_1": "EN.ATM.CO2E.PC", "LAT": 59.081, "2011": 14.135813, "POP2005": 32270507}, "21": {"REAL": 0.48245102799, "INDEX": 0.69785407762, "Indicator": "CO2 emissions (metric tons per capita)", "UN": 76, "NAME": "Brazil", "AREA": 845942, "1965": 0.668392, "REGION": 19, "LON": -53.089, "SUBREGION": 5, "1990": 1.395852, "ISO3": "BRA", "ISO2": "BR", "FIPS": "BR", "Indicato_1": "EN.ATM.CO2E.PC", "LAT": -10.772, "2011": 2.231257, "POP2005": 186830759}, "47": {"REAL": 0.07870543497, "INDEX": 0.11384556263, "Indicator": "CO2 emissions (metric tons per capita)", "UN": 214, "NAME": "Dominican Republic", "AREA": 4838, "1965": 0.396839, "REGION": 19, "LON": -70.729, "SUBREGION": 29, "1990": 1.273938, "ISO3": "DOM", "ISO2": "DO", "FIPS": "DR", "Indicato_1": "EN.ATM.CO2E.PC", "LAT": 19.015, "2011": 2.156995, "POP2005": 9469601}, "42": {"REAL": 0.0098412235898, "INDEX": 0.01423509872, "Indicator": "CO2 emissions (metric tons per capita)", "UN": 132, "NAME": "Cape Verde", "AREA": 403, "1965": 0.10622, "REGION": 2, "LON": -23.634, "SUBREGION": 11, "1990": 0.250051, "ISO3": "CPV", "ISO2": "CV", "FIPS": "CV", "Indicato_1": "EN.ATM.CO2E.PC", "LAT": 15.071, "2011": 0.867122, "POP2005": 506807}, "41": {"REAL": 0.72743808583, "INDEX": 1.0522221012, "Indicator": "CO2 emissions (metric tons per capita)", "UN": 192, "NAME": "Cuba", "AREA": 10982, "1965": 1.837209, "REGION": 19, "LON": -77.781, "SUBREGION": 29, "1990": 3.159596, "ISO3": "CUB", "ISO2": "CU", "FIPS": "CU", "Indicato_1": "EN.ATM.CO2E.PC", "LAT": 21.297, "2011": 3.185683, "POP2005": 11259905}, "2": {"REAL": 0.039222940364, "INDEX": 0.05673506176, "Indicator": "CO2 emissions (metric tons per capita)", "UN": 12, "NAME": "Algeria", "AREA": 238174, "1965": 0.516552, "REGION": 2, "LON": 2.632, "SUBREGION": 15, "1990": 3.00784, "ISO3": "DZA", "ISO2": "DZ", "FIPS": "AG", "Indicato_1": "EN.ATM.CO2E.PC", "LAT": 28.163, "2011": 3.224202, "POP2005": 32854159}, "75": {"REAL": 7.1706242124, "INDEX": 6, "Indicator": "CO2 emissions (metric tons per capita)", "UN": 328, "NAME": "Guyana", "AREA": 19685, "1965": 1.683105, "REGION": 19, "LON": -58.974, "SUBREGION": 5, "1990": 1.572923, "ISO3": "GUY", "ISO2": "GY", "FIPS": "GY", "Indicato_1": "EN.ATM.CO2E.PC", "LAT": 4.792, "2011": 2.253385, "POP2005": 739472}, "200": {"REAL": 1.2500368274, "INDEX": 1.8081489033, "Indicator": "CO2 emissions (metric tons per capita)", "UN": 854, "NAME": "Burkina Faso", "AREA": 27360, "1965": 0.019841, "REGION": 2, "LON": -1.74, "SUBREGION": 11, "1990": 0.066589, "ISO3": "BFA", "ISO2": "BF", "FIPS": "UV", "Indicato_1": "EN.ATM.CO2E.PC", "LAT": 12.278, "2011": 0.120817, "POP2005": 13933363}, "203": {"REAL": 0.0092365399367, "INDEX": 0.013360438022, "Indicator": "CO2 emissions (metric tons per capita)", "UN": 670, "NAME": "Saint Vincent and the Grenadines", "AREA": 39, "1965": 0.170614, "REGION": 19, "LON": -61.194, "SUBREGION": 29, "1990": 0.750393, "ISO3": "VCT", "ISO2": "VC", "FIPS": "VC", "Indicato_1": "EN.ATM.CO2E.PC", "LAT": 13.248, "2011": 2.179604, "POP2005": 119137}, "205": {"REAL": -999.99, "INDEX": -999.99, "Indicator": "", "UN": 92, "NAME": "British Virgin Islands", "AREA": 15, "1965": 0, "REGION": 19, "LON": -64.39, "SUBREGION": 29, "1990": 0, "ISO3": "VGB", "ISO2": "VG", "FIPS": "VI", "Indicato_1": "", "LAT": 18.483, "2011": 0, "POP2005": 22016}, "204": {"REAL": 0.15520420431, "INDEX": 0.22449923527, "Indicator": "CO2 emissions (metric tons per capita)", "UN": 862, "NAME": "Venezuela", "AREA": 88205, "1965": 6.683112, "REGION": 19, "LON": -66.166, "SUBREGION": 5, "1990": 6.188327, "ISO3": "VEN", "ISO2": "VE", "FIPS": "VE", "Indicato_1": "EN.ATM.CO2E.PC", "LAT": 7.125, "2011": 6.400458, "POP2005": 26725573}, "225": {"REAL": -999.99, "INDEX": -999.99, "Indicator": "CO2 emissions (metric tons per capita)", "UN": 796, "NAME": "Turks and Caicos Islands", "AREA": 0, "1965": 0, "REGION": 19, "LON": -71.95, "SUBREGION": 29, "1990": 0, "ISO3": "TCA", "ISO2": "TC", "FIPS": "TK", "Indicato_1": "EN.ATM.CO2E.PC", "LAT": 21.902, "2011": 6.010339, "POP2005": 24459}, "39": {"REAL": 0.70104562568, "INDEX": 1.0140460277, "Indicator": "CO2 emissions (metric tons per capita)", "UN": 188, "NAME": "Costa Rica", "AREA": 5106, "1965": 0.535082, "REGION": 19, "LON": -83.946, "SUBREGION": 13, "1990": 0.960063, "ISO3": "CRI", "ISO2": "CR", "FIPS": "CS", "Indicato_1": "EN.ATM.CO2E.PC", "LAT": 9.971, "2011": 1.655602, "POP2005": 4327228}, "77": {"REAL": 1.2552912261, "INDEX": 1.8157492676, "Indicator": "CO2 emissions (metric tons per capita)", "UN": 340, "NAME": "Honduras", "AREA": 11189, "1965": 0.319529, "REGION": 19, "LON": -86.863, "SUBREGION": 13, "1990": 0.528697, "ISO3": "HND", "ISO2": "HN", "FIPS": "HO", "Indicato_1": "EN.ATM.CO2E.PC", "LAT": 14.819, "2011": 1.08171, "POP2005": 683411}, "76": {"REAL": 0.84031502632, "INDEX": 1.2154959438, "Indicator": "CO2 emissions (metric tons per capita)", "UN": 332, "NAME": "Haiti", "AREA": 2756, "1965": 0.071193, "REGION": 19, "LON": -72.278, "SUBREGION": 29, "1990": 0.139767, "ISO3": "HTI", "ISO2": "HT", "FIPS": "HA", "Indicato_1": "EN.ATM.CO2E.PC", "LAT": 19.142, "2011": 0.220396, "POP2005": 9296291}, "108": {"REAL": 0.65285512839, "INDEX": 0.94433960548, "Indicator": "CO2 emissions (metric tons per capita)", "UN": 466, "NAME": "Mali", "AREA": 122019, "1965": 0.036845, "REGION": 2, "LON": -3.524, "SUBREGION": 11, "1990": 0.052951, "ISO3": "MLI", "ISO2": "ML", "FIPS": "ML", "Indicato_1": "EN.ATM.CO2E.PC", "LAT": 17.35, "2011": 0.086736, "POP2005": 1161109}, "109": {"REAL": 0.075712586358, "INDEX": 0.10951647743, "Indicator": "CO2 emissions (metric tons per capita)", "UN": 504, "NAME": "Morocco", "AREA": 44630, "1965": 0.302368, "REGION": 2, "LON": -5.758, "SUBREGION": 15, "1990": 0.95409, "ISO3": "MAR", "ISO2": "MA", "FIPS": "MO", "Indicato_1": "EN.ATM.CO2E.PC", "LAT": 32.706, "2011": 1.763532, "POP2005": 30494991}, "73": {"REAL": 1.3068236629, "INDEX": 1.8902897268, "Indicator": "CO2 emissions (metric tons per capita)", "UN": 320, "NAME": "Guatemala", "AREA": 10843, "1965": 0.417341, "REGION": 19, "LON": -90.398, "SUBREGION": 13, "1990": 0.572097, "ISO3": "GTM", "ISO2": "GT", "FIPS": "GT", "Indicato_1": "EN.ATM.CO2E.PC", "LAT": 15.256, "2011": 0.765487, "POP2005": 12709564}, "226": {"REAL": -999.99, "INDEX": -999.99, "Indicator": "", "UN": 732, "NAME": "Western Sahara", "AREA": 0, "1965": 0, "REGION": 2, "LON": -13.706, "SUBREGION": 15, "1990": 0, "ISO3": "ESH", "ISO2": "EH", "FIPS": "WI", "Indicato_1": "", "LAT": 24.554, "2011": 0, "POP2005": 440428}, "100": {"REAL": 1.8723041987, "INDEX": 2.7082440368, "Indicator": "CO2 emissions (metric tons per capita)", "UN": 430, "NAME": "Liberia", "AREA": 9632, "1965": 0.444851, "REGION": 2, "LON": -9.657, "SUBREGION": 11, "1990": 0.230182, "ISO3": "LBR", "ISO2": "LR", "FIPS": "LI", "Indicato_1": "EN.ATM.CO2E.PC", "LAT": 6.682, "2011": 0.218418, "POP2005": 3441796}, "167": {"REAL": 0.13270049736, "INDEX": 0.19194815186, "Indicator": "CO2 emissions (metric tons per capita)", "UN": 643, "NAME": "Russia", "AREA": 1638094, "1965": 0, "REGION": 150, "LON": 96.689, "SUBREGION": 151, "1990": 0, "ISO3": "RUS", "ISO2": "RU", "FIPS": "RS", "Indicato_1": "EN.ATM.CO2E.PC", "LAT": 61.988, "2011": 12.647328, "POP2005": 143953092}, "160": {"REAL": 0.5409058043, "INDEX": 0.78240753825, "Indicator": "CO2 emissions (metric tons per capita)", "UN": 624, "NAME": "Guinea-Bissau", "AREA": 2812, "1965": 0.100105, "REGION": 2, "LON": -14.651, "SUBREGION": 11, "1990": 0.248699, "ISO3": "GNB", "ISO2": "GW", "FIPS": "PU", "Indicato_1": "EN.ATM.CO2E.PC", "LAT": 12.125, "2011": 0.151265, "POP2005": 1596929}, "222": {"REAL": -999.99, "INDEX": -999.99, "Indicator": "", "UN": 666, "NAME": "Saint Pierre and Miquelon", "AREA": 0, "1965": 0, "REGION": 19, "LON": -56.325, "SUBREGION": 21, "1990": 0, "ISO3": "SPM", "ISO2": "PM", "FIPS": "SB", "Indicato_1": "", "LAT": 47.042, "2011": 0, "POP2005": 6346}, "13": {"REAL": -999.99, "INDEX": -999.99, "Indicator": "CO2 emissions (metric tons per capita)", "UN": 44, "NAME": "Bahamas", "AREA": 1001, "1965": 9.399946, "REGION": 19, "LON": -78.014, "SUBREGION": 29, "1990": 7.610436, "ISO3": "BHS", "ISO2": "BS", "FIPS": "BF", "Indicato_1": "EN.ATM.CO2E.PC", "LAT": 24.628, "2011": 5.205238, "POP2005": 323295}, "38": {"REAL": 0.65713375396, "INDEX": 0.95052853686, "Indicator": "CO2 emissions (metric tons per capita)", "UN": 170, "NAME": "Colombia", "AREA": 103870, "1965": 1.233119, "REGION": 19, "LON": -73.076, "SUBREGION": 5, "1990": 1.721479, "ISO3": "COL", "ISO2": "CO", "FIPS": "CO", "Indicato_1": "EN.ATM.CO2E.PC", "LAT": 3.9, "2011": 1.538341, "POP2005": 4494579}, "80": {"REAL": -999.99, "INDEX": 0, "Indicator": "CO2 emissions (metric tons per capita)", "UN": 352, "NAME": "Iceland", "AREA": 10025, "1965": 7.26588, "REGION": 150, "LON": -18.48, "SUBREGION": 154, "1990": 7.842665, "ISO3": "ISL", "ISO2": "IS", "FIPS": "IC", "Indicato_1": "EN.ATM.CO2E.PC", "LAT": 64.764, "2011": 5.896829, "POP2005": 295732}, "57": {"REAL": -999.99, "INDEX": -999.99, "Indicator": "", "UN": 254, "NAME": "French Guiana", "AREA": 8815, "1965": 0, "REGION": 19, "LON": -53.241, "SUBREGION": 5, "1990": 0, "ISO3": "GUF", "ISO2": "GF", "FIPS": "FG", "Indicato_1": "", "LAT": 3.924, "2011": 0, "POP2005": 192099}, "50": {"REAL": 0.0049073693992, "INDEX": 0.0070983945456, "Indicator": "CO2 emissions (metric tons per capita)", "UN": 372, "NAME": "Ireland", "AREA": 6889, "1965": 4.772848, "REGION": 150, "LON": -8.152, "SUBREGION": 154, "1990": 8.891028, "ISO3": "IRL", "ISO2": "IE", "FIPS": "EI", "Indicato_1": "EN.ATM.CO2E.PC", "LAT": 53.177, "2011": 7.880759, "POP2005": 4143294}, "34": {"REAL": -999.99, "INDEX": -999.99, "Indicator": "CO2 emissions (metric tons per capita)", "UN": 136, "NAME": "Cayman Islands", "AREA": 26, "1965": 1.31418, "REGION": 19, "LON": -81.198, "SUBREGION": 29, "1990": 10.117278, "ISO3": "CYM", "ISO2": "KY", "FIPS": "CJ", "Indicato_1": "EN.ATM.CO2E.PC", "LAT": 19.314, "2011": 10.301108, "POP2005": 45591}, "74": {"REAL": 0.18021222728, "INDEX": 0.26067275298, "Indicator": "CO2 emissions (metric tons per capita)", "UN": 324, "NAME": "Guinea", "AREA": 24572, "1965": 0.179792, "REGION": 2, "LON": -10.942, "SUBREGION": 11, "1990": 0.175428, "ISO3": "GIN", "ISO2": "GN", "FIPS": "GV", "Indicato_1": "EN.ATM.CO2E.PC", "LAT": 10.439, "2011": 0.232606, "POP2005": 9002656}}, "grid": ["                                                                ", "                                                                ", "                                                                ", "                                                                ", "                                                                ", "                                                    !!          ", "                                                 !!!!!!         ", "                                    #####      !!!!!!!!!        ", "                                   #######     !!!!!!!!!!       ", "                                 ########## !!!!!!!!!!!!!!      ", "                                ##########!!!!!!!!!!!!!!!!!!    ", "                                ##########!!!!!!!!!!!!!!!!!!    ", "                              ###########!!!!!!!!!!!!!!!!!!     ", "                              ##########!!!!!!!!!!!!!!!!!!!     ", "                              ##########!!!!!!!!!!!!!!!!!!      ", "                              #########  !!!!!!!!!!!!!!!!!      ", "                           ##  #######  !!!!!!!!!!!!!!!!!!      ", "                        ## ###########!!!!!!!!!!!!!!!!!!!!      ", "                       ###  ###  #####!!!!!!!!!!!!!!!!!!!!      ", "                      ###     # ##### !!!!!!!!!!!!!!!!!!!!      ", "                     ### # ##########  !!!!!!!!!!!!!!!!!!!      ", "                    #############  ##   !!!!!!!!!!!!!!!!!!      ", "                      ##############       !!!!!!!!!!!!!!!      ", "                       ##    #######        !!!!!!!!!!!!!!      ", "                    ###     ######          !!!!!!!!!!!!!       ", "                    ####  # #########       !!!!!!!!!!!!!       ", "                   ######## ### ######      !!!!!!!!!!!!!       ", "$       %           #######  ##########     !!!!!!!!!!!!!       ", "       %%%%%          ####### ## #######     !!!!!!!!!!!!       ", "      %%%%%%%%# ###### ########## #######    !!!!!!!!!!!        ", "$    %%%%%%%%%############# ##### #######    !!!!!!!!!!         ", "$$    %%%%%%%%###################### #####   !!!!!!!!           ", "$$$$ % %%%%%%%#####################   #####  !!!!!!!    &&&     ", "$ $  %%%%%%%%%##################### ######   !!!!!!     &&&&    ", "       %%%%%%%####################### ####    !!!!      &&&     ", "      %%%%%%%%##################  # #  ###    !!!!              ", "     %%%%%%%%%#################      ##  #     !!!              ", "     %%%%%%% %%################      ### #      !               ", "       %%%     %%##############     ######                    ''", "        %%      %%###############    ######                  '''", "      %%        %%#################  ######                   ''", "     %           ################## #########                '''", " %%%             ############################               ((''", "                   ##########################                 ''", "                    %%%%%%%%%%%%########## ###                ))", "                    %%%%%%%%%%%%%%%####%### *#                 )", "                    %%%%%%%%%%%%%%%##%%%%##                     ", "                    %%%%%%%%%%%%%%%#%%%                      +++", "                    %%%%%%%%%%%%%%%%%%%                      ,++", "                    %%%%%%%%%%%%%%%%%%                ,      ,++", "                     %%%%%%%%%%%%%%%%%                        ++", "                     %%%%%%%%%%%%%%%%                         --", "                       .%%%%%%%%%%%%                         ---", "                      .....%%%%%%  %                       +--//", "                        .....%     %0                      112//", "                        ......     %00                     12233", "       %%                 ....  ..44445                   112233", "                           ....... 6  789:                222233", "                             ...;<<       =            >> ??2223", "                                ;@@A      B               ??333C", "                                  @  ADDDDD               EFF3CC", "                                  GHHADDDDDI               JJKLL", "                                     AAADDDIMN               KLL", "        O                           AAAADDPIMNP                 "]}