{"keys": ["", "147", "244", "58", "167", "135", "237", "241", "236", "239", "99", "156", "96", "197", "70", "146", "198", "63", "123", "240", "56", "101", "105", "183", "55", "79", "164", "30", "84", "243", "163", "227", "78", "202", "131", "224", "16", "179", "133", "22", "66", "228", "4", "107", "192", "194", "91", "72", "5", "3", "82", "186", "191", "2", "182", "86", "31", "155", "44", "98", "81", "238", "49", "132", "169", "89", "148", "95", "217", "120", "112", "108", "36", "181", "211", "52", "200", "54", "145", "178", "19", "189", "40", "26", "35", "113", "67", "51", "28", "196", "90", "65", "27", "190"], "data": {"217": {"REAL": -999.99, "INDEX": -999.99, "Indicator": "CO2 emissions (metric tons per capita)", "UN": 784, "NAME": "United Arab Emirates", "AREA": 8360, "1965": 0.150347, "REGION": 142, "LON": 54.163, "SUBREGION": 145, "1990": 28.789991, "ISO3": "ARE", "ISO2": "AE", "FIPS": "AE", "Indicato_1": "EN.ATM.CO2E.PC", "LAT": 23.549, "2011": 19.99798, "POP2005": 4104291}, "66": {"REAL": 0.7704338485, "INDEX": 1.1144144618, "Indicator": "CO2 emissions (metric tons per capita)", "UN": 268, "NAME": "Georgia", "AREA": 6949, "1965": 0, "REGION": 142, "LON": 43.518, "SUBREGION": 145, "1990": 0, "ISO3": "GEO", "ISO2": "GE", "FIPS": "GG", "Indicato_1": "EN.ATM.CO2E.PC", "LAT": 42.176, "2011": 1.769151, "POP2005": 4473409}, "211": {"REAL": 0.099410698545, "INDEX": 0.14379523996, "Indicator": "CO2 emissions (metric tons per capita)", "UN": 887, "NAME": "Yemen", "AREA": 52797, "1965": 0.705248, "REGION": 142, "LON": 48.355, "SUBREGION": 145, "1990": 0.813939, "ISO3": "YEM", "ISO2": "YE", "FIPS": "YM", "Indicato_1": "EN.ATM.CO2E.PC", "LAT": 15.807, "2011": 0.95671, "POP2005": 21095679}, "133": {"REAL": 0.012174282462, "INDEX": 0.017609813568, "Indicator": "CO2 emissions (metric tons per capita)", "UN": 499, "NAME": "Montenegro", "AREA": 0, "1965": 0, "REGION": 150, "LON": 19.254, "SUBREGION": 39, "1990": 0, "ISO3": "MNE", "ISO2": "ME", "FIPS": "MJ", "Indicato_1": "EN.ATM.CO2E.PC", "LAT": 42.792, "2011": 4.145548, "POP2005": 607969}, "132": {"REAL": -999.99, "INDEX": -999.99, "Indicator": "CO2 emissions (metric tons per capita)", "UN": 275, "NAME": "Palestine", "AREA": 0, "1965": 0, "REGION": 142, "LON": 35.278, "SUBREGION": 145, "1990": 0, "ISO3": "PSE", "ISO2": "PS", "FIPS": "", "Indicato_1": "EN.ATM.CO2E.PC", "LAT": 32.037, "2011": 0.572407, "POP2005": 3762005}, "131": {"REAL": -999.99, "INDEX": -999.99, "Indicator": "CO2 emissions (metric tons per capita)", "UN": 492, "NAME": "Monaco", "AREA": 0, "1965": 0, "REGION": 150, "LON": 7.412, "SUBREGION": 155, "1990": 0, "ISO3": "MCO", "ISO2": "MC", "FIPS": "MN", "Indicato_1": "EN.ATM.CO2E.PC", "LAT": 43.75, "2011": 0, "POP2005": 325}, "135": {"REAL": -999.99, "INDEX": -999.99, "Indicator": "", "UN": 248, "NAME": "\u00c5land Islands", "AREA": 0, "1965": 0, "REGION": 150, "LON": 19.952, "SUBREGION": 154, "1990": 0, "ISO3": "ALA", "ISO2": "AX", "FIPS": "", "Indicato_1": "", "LAT": 60.198, "2011": 0, "POP2005": 0}, "26": {"REAL": 2.1600300286, "INDEX": 3.1244326901, "Indicator": "CO2 emissions (metric tons per capita)", "UN": 144, "NAME": "Sri Lanka", "AREA": 6463, "1965": 0.238138, "REGION": 142, "LON": 80.704, "SUBREGION": 34, "1990": 0.227369, "ISO3": "LKA", "ISO2": "LK", "FIPS": "CE", "Indicato_1": "EN.ATM.CO2E.PC", "LAT": 7.612, "2011": 0.729921, "POP2005": 19120763}, "27": {"REAL": 0.26289643697, "INDEX": 0.38027351977, "Indicator": "CO2 emissions (metric tons per capita)", "UN": 178, "NAME": "Congo", "AREA": 34150, "1965": 0.212184, "REGION": 2, "LON": 15.986, "SUBREGION": 17, "1990": 0.498517, "ISO3": "COG", "ISO2": "CG", "FIPS": "CF", "Indicato_1": "EN.ATM.CO2E.PC", "LAT": -0.055, "2011": 0.531995, "POP2005": 3609851}, "22": {"REAL": 0.0085531604465, "INDEX": 0.012371945644, "Indicator": "CO2 emissions (metric tons per capita)", "UN": 100, "NAME": "Bulgaria", "AREA": 11063, "1965": 5.645652, "REGION": 150, "LON": 25.231, "SUBREGION": 151, "1990": 8.690224, "ISO3": "BGR", "ISO2": "BG", "FIPS": "BU", "Indicato_1": "EN.ATM.CO2E.PC", "LAT": 42.761, "2011": 6.714383, "POP2005": 7744591}, "28": {"REAL": 0.017890962277, "INDEX": 0.025878856616, "Indicator": "CO2 emissions (metric tons per capita)", "UN": 180, "NAME": "Democratic Republic of the Congo", "AREA": 226705, "1965": 0.14229, "REGION": 2, "LON": 23.654, "SUBREGION": 17, "1990": 0.116594, "ISO3": "COD", "ISO2": "CD", "FIPS": "CG", "Indicato_1": "EN.ATM.CO2E.PC", "LAT": -2.876, "2011": 0.053573, "POP2005": 58740547}, "4": {"REAL": 5.2695769934, "INDEX": 6, "Indicator": "CO2 emissions (metric tons per capita)", "UN": 8, "NAME": "Albania", "AREA": 2740, "1965": 1.166099, "REGION": 150, "LON": 20.068, "SUBREGION": 39, "1990": 2.278387, "ISO3": "ALB", "ISO2": "AL", "FIPS": "AL", "Indicato_1": "EN.ATM.CO2E.PC", "LAT": 41.143, "2011": 1.607038, "POP2005": 3153731}, "96": {"REAL": 0.21716121877, "INDEX": 0.31411860111, "Indicator": "CO2 emissions (metric tons per capita)", "UN": 398, "NAME": "Kazakhstan", "AREA": 269970, "1965": 0, "REGION": 142, "LON": 67.301, "SUBREGION": 143, "1990": 0, "ISO3": "KAZ", "ISO2": "KZ", "FIPS": "KZ", "Indicato_1": "EN.ATM.CO2E.PC", "LAT": 48.16, "2011": 15.810098, "POP2005": 15210609}, "120": {"REAL": 7.5250657392, "INDEX": 6, "Indicator": "CO2 emissions (metric tons per capita)", "UN": 562, "NAME": "Niger", "AREA": 126670, "1965": 0.023896, "REGION": 2, "LON": 9.398, "SUBREGION": 11, "1990": 0.107353, "ISO3": "NER", "ISO2": "NE", "FIPS": "NG", "Indicato_1": "EN.ATM.CO2E.PC", "LAT": 17.426, "2011": 0.08617, "POP2005": 1326419}, "123": {"REAL": 0.0016921680601, "INDEX": 0.0024476813444, "Indicator": "CO2 emissions (metric tons per capita)", "UN": 56, "NAME": "Belgium", "AREA": 0, "1965": 11.141656, "REGION": 150, "LON": 4.664, "SUBREGION": 155, "1990": 10.639672, "ISO3": "BEL", "ISO2": "BE", "FIPS": "BE", "Indicato_1": "EN.ATM.CO2E.PC", "LAT": 50.643, "2011": 8.849398, "POP2005": 10398049}, "2": {"REAL": 0.039222940364, "INDEX": 0.05673506176, "Indicator": "CO2 emissions (metric tons per capita)", "UN": 12, "NAME": "Algeria", "AREA": 238174, "1965": 0.516552, "REGION": 2, "LON": 2.632, "SUBREGION": 15, "1990": 3.00784, "ISO3": "DZA", "ISO2": "DZ", "FIPS": "AG", "Indicato_1": "EN.ATM.CO2E.PC", "LAT": 28.163, "2011": 3.224202, "POP2005": 32854159}, "91": {"REAL": 2.0654640265, "INDEX": 2.9876451897, "Indicator": "CO2 emissions (metric tons per capita)", "UN": 417, "NAME": "Kyrgyzstan", "AREA": 19180, "1965": 0, "REGION": 142, "LON": 74.555, "SUBREGION": 143, "1990": 0, "ISO3": "KGZ", "ISO2": "KG", "FIPS": "KG", "Indicato_1": "EN.ATM.CO2E.PC", "LAT": 41.465, "2011": 1.199592, "POP2005": 5203547}, "58": {"REAL": 0.00038704347011, "INDEX": 0.00055984928658, "Indicator": "CO2 emissions (metric tons per capita)", "UN": 246, "NAME": "Finland", "AREA": 30459, "1965": 5.549837, "REGION": 150, "LON": 26.272, "SUBREGION": 154, "1990": 10.377169, "ISO3": "FIN", "ISO2": "FI", "FIPS": "FI", "Indicato_1": "EN.ATM.CO2E.PC", "LAT": 64.504, "2011": 10.164046, "POP2005": 5246004}, "55": {"REAL": 0.03815297828, "INDEX": 0.055187386742, "Indicator": "CO2 emissions (metric tons per capita)", "UN": 40, "NAME": "Austria", "AREA": 8245, "1965": 5.252197, "REGION": 150, "LON": 14.912, "SUBREGION": 155, "1990": 7.518022, "ISO3": "AUT", "ISO2": "AT", "FIPS": "AU", "Indicato_1": "EN.ATM.CO2E.PC", "LAT": 47.683, "2011": 7.769983, "POP2005": 8291979}, "54": {"REAL": 3.2630181687, "INDEX": 4.7198791219, "Indicator": "CO2 emissions (metric tons per capita)", "UN": 231, "NAME": "Ethiopia", "AREA": 100000, "1965": 0.025802, "REGION": 2, "LON": 39.616, "SUBREGION": 14, "1990": 0.062818, "ISO3": "ETH", "ISO2": "ET", "FIPS": "ET", "Indicato_1": "EN.ATM.CO2E.PC", "LAT": 8.626, "2011": 0.08438, "POP2005": 78985857}, "56": {"REAL": 0.15574598779, "INDEX": 0.22528291235, "Indicator": "CO2 emissions (metric tons per capita)", "UN": 203, "NAME": "Czech Republic", "AREA": 7727, "1965": 0, "REGION": 150, "LON": 15.338, "SUBREGION": 151, "1990": 0, "ISO3": "CZE", "ISO2": "CZ", "FIPS": "EZ", "Indicato_1": "EN.ATM.CO2E.PC", "LAT": 49.743, "2011": 10.431088, "POP2005": 10191762}, "51": {"REAL": -999.99, "INDEX": -999.99, "Indicator": "CO2 emissions (metric tons per capita)", "UN": 226, "NAME": "Equatorial Guinea", "AREA": 2805, "1965": 0.108883, "REGION": 2, "LON": 10.488, "SUBREGION": 17, "1990": 0.323688, "ISO3": "GNQ", "ISO2": "GQ", "FIPS": "EK", "Indicato_1": "EN.ATM.CO2E.PC", "LAT": 1.607, "2011": 9.341683, "POP2005": 484098}, "52": {"REAL": 7.3234828559, "INDEX": 6, "Indicator": "CO2 emissions (metric tons per capita)", "UN": 232, "NAME": "Eritrea", "AREA": 10100, "1965": 0, "REGION": 2, "LON": 38.219, "SUBREGION": 14, "1990": 0, "ISO3": "ERI", "ISO2": "ER", "FIPS": "ER", "Indicato_1": "EN.ATM.CO2E.PC", "LAT": 16.045, "2011": 0.087768, "POP2005": 4526722}, "164": {"REAL": 0.34381082155, "INDEX": 0.49731427612, "Indicator": "CO2 emissions (metric tons per capita)", "UN": 498, "NAME": "Republic of Moldova", "AREA": 3288, "1965": 0, "REGION": 150, "LON": 28.599, "SUBREGION": 151, "1990": 0, "ISO3": "MDA", "ISO2": "MD", "FIPS": "MD", "Indicato_1": "EN.ATM.CO2E.PC", "LAT": 47.193, "2011": 1.398822, "POP2005": 3876661}, "198": {"REAL": 0.26923935392, "INDEX": 0.38944840013, "Indicator": "CO2 emissions (metric tons per capita)", "UN": 804, "NAME": "Ukraine", "AREA": 57935, "1965": 0, "REGION": 150, "LON": 31.388, "SUBREGION": 151, "1990": 0, "ISO3": "UKR", "ISO2": "UA", "FIPS": "UP", "Indicato_1": "EN.ATM.CO2E.PC", "LAT": 49.016, "2011": 6.262352, "POP2005": 46917544}, "147": {"REAL": 0.0067955879567, "INDEX": 0.0098296583285, "Indicator": "CO2 emissions (metric tons per capita)", "UN": 578, "NAME": "Norway", "AREA": 30625, "1965": 4.40749, "REGION": 150, "LON": 8.74, "SUBREGION": 154, "1990": 7.399753, "ISO3": "NOR", "ISO2": "NO", "FIPS": "NO", "Indicato_1": "EN.ATM.CO2E.PC", "LAT": 61.152, "2011": 9.192879, "POP2005": 4638836}, "194": {"REAL": 0.00047537828, "INDEX": 0.00068762351381, "Indicator": "CO2 emissions (metric tons per capita)", "UN": 795, "NAME": "Turkmenistan", "AREA": 46993, "1965": 0, "REGION": 142, "LON": 59.384, "SUBREGION": 143, "1990": 0, "ISO3": "TKM", "ISO2": "TM", "FIPS": "TX", "Indicato_1": "EN.ATM.CO2E.PC", "LAT": 39.122, "2011": 12.183676, "POP2005": 4833266}, "197": {"REAL": 0.032407018945, "INDEX": 0.046875991556, "Indicator": "CO2 emissions (metric tons per capita)", "UN": 826, "NAME": "United Kingdom", "AREA": 24193, "1965": 11.45616, "REGION": 150, "LON": -1.6, "SUBREGION": 154, "1990": 9.710497, "ISO3": "GBR", "ISO2": "GB", "FIPS": "UK", "Indicato_1": "EN.ATM.CO2E.PC", "LAT": 53, "2011": 7.085732, "POP2005": 60244834}, "67": {"REAL": 0.97443823697, "INDEX": 1.409502017, "Indicator": "CO2 emissions (metric tons per capita)", "UN": 288, "NAME": "Ghana", "AREA": 22754, "1965": 0.22114, "REGION": 2, "LON": -1.207, "SUBREGION": 11, "1990": 0.26872, "ISO3": "GHA", "ISO2": "GH", "FIPS": "GH", "Indicato_1": "EN.ATM.CO2E.PC", "LAT": 7.96, "2011": 0.406136, "POP2005": 2253501}, "191": {"REAL": 0.098450336468, "INDEX": 0.14240609878, "Indicator": "CO2 emissions (metric tons per capita)", "UN": 788, "NAME": "Tunisia", "AREA": 15536, "1965": 0.53223, "REGION": 2, "LON": 9.596, "SUBREGION": 15, "1990": 1.627, "ISO3": "TUN", "ISO2": "TN", "FIPS": "TS", "Indicato_1": "EN.ATM.CO2E.PC", "LAT": 35.383, "2011": 2.402456, "POP2005": 10104685}, "190": {"REAL": -999.99, "INDEX": -999.99, "Indicator": "CO2 emissions (metric tons per capita)", "UN": 678, "NAME": "Sao Tome and Principe", "AREA": 96, "1965": 0.169776, "REGION": 2, "LON": 6.629, "SUBREGION": 17, "1990": 0.406074, "ISO3": "STP", "ISO2": "ST", "FIPS": "TP", "Indicato_1": "EN.ATM.CO2E.PC", "LAT": 0.201, "2011": 0.560529, "POP2005": 152622}, "192": {"REAL": 0.13656306744, "INDEX": 0.19753526873, "Indicator": "CO2 emissions (metric tons per capita)", "UN": 792, "NAME": "Turkey", "AREA": 76963, "1965": 0.883506, "REGION": 142, "LON": 35.179, "SUBREGION": 145, "1990": 2.701355, "ISO3": "TUR", "ISO2": "TR", "FIPS": "TU", "Indicato_1": "EN.ATM.CO2E.PC", "LAT": 39.061, "2011": 4.391548, "POP2005": 72969723}, "145": {"REAL": 0.055033264427, "INDEX": 0.07960432408, "Indicator": "CO2 emissions (metric tons per capita)", "UN": 566, "NAME": "Nigeria", "AREA": 91077, "1965": 0.234157, "REGION": 2, "LON": 8.105, "SUBREGION": 11, "1990": 0.474553, "ISO3": "NGA", "ISO2": "NG", "FIPS": "NI", "Indicato_1": "EN.ATM.CO2E.PC", "LAT": 9.594, "2011": 0.536115, "POP2005": 141356083}, "113": {"REAL": 0.030647954254, "INDEX": 0.044331545806, "Indicator": "CO2 emissions (metric tons per capita)", "UN": 462, "NAME": "Maldives", "AREA": 30, "1965": 0, "REGION": 142, "LON": 72.92, "SUBREGION": 34, "1990": 0.713494, "ISO3": "MDV", "ISO2": "MV", "FIPS": "MV", "Indicato_1": "EN.ATM.CO2E.PC", "LAT": 3.548, "2011": 3.32496, "POP2005": 295297}, "112": {"REAL": -999.99, "INDEX": -999.99, "Indicator": "CO2 emissions (metric tons per capita)", "UN": 512, "NAME": "Oman", "AREA": 30950, "1965": 0.04107, "REGION": 142, "LON": 57.407, "SUBREGION": 145, "1990": 6.290269, "ISO3": "OMN", "ISO2": "OM", "FIPS": "MU", "Indicato_1": "EN.ATM.CO2E.PC", "LAT": 21.656, "2011": 21.441127, "POP2005": 2507042}, "82": {"REAL": 3.056791917, "INDEX": 4.4215776938, "Indicator": "CO2 emissions (metric tons per capita)", "UN": 364, "NAME": "Iran (Islamic Republic of)", "AREA": 163620, "1965": 2.148596, "REGION": 142, "LON": 54.301, "SUBREGION": 34, "1990": 3.746059, "ISO3": "IRN", "ISO2": "IR", "FIPS": "IR", "Indicato_1": "EN.ATM.CO2E.PC", "LAT": 32.565, "2011": 7.777323, "POP2005": 69420607}, "81": {"REAL": 4.3561089921, "INDEX": 6, "Indicator": "CO2 emissions (metric tons per capita)", "UN": 356, "NAME": "India", "AREA": 297319, "1965": 0.333309, "REGION": 142, "LON": 78.5, "SUBREGION": 34, "1990": 0.79478, "ISO3": "IND", "ISO2": "IN", "FIPS": "IN", "Indicato_1": "EN.ATM.CO2E.PC", "LAT": 21, "2011": 1.698673, "POP2005": 1134403141}, "86": {"REAL": 0.014837959324, "INDEX": 0.021462759569, "Indicator": "CO2 emissions (metric tons per capita)", "UN": 368, "NAME": "Iraq", "AREA": 43737, "1965": 2.305942, "REGION": 142, "LON": 43.772, "SUBREGION": 145, "1990": 3.000164, "ISO3": "IRQ", "ISO2": "IQ", "FIPS": "IZ", "Indicato_1": "EN.ATM.CO2E.PC", "LAT": 33.048, "2011": 4.208272, "POP2005": 27995984}, "84": {"REAL": 0.007102219069, "INDEX": 0.010273193029, "Indicator": "CO2 emissions (metric tons per capita)", "UN": 380, "NAME": "Italy", "AREA": 29411, "1965": 3.641502, "REGION": 150, "LON": 12.8, "SUBREGION": 39, "1990": 7.361705, "ISO3": "ITA", "ISO2": "IT", "FIPS": "IT", "Indicato_1": "EN.ATM.CO2E.PC", "LAT": 42.7, "2011": 6.702558, "POP2005": 5864636}, "3": {"REAL": 1.1055650667, "INDEX": 1.5991738955, "Indicator": "CO2 emissions (metric tons per capita)", "UN": 31, "NAME": "Azerbaijan", "AREA": 8260, "1965": 0, "REGION": 142, "LON": 47.395, "SUBREGION": 145, "1990": 0, "ISO3": "AZE", "ISO2": "AZ", "FIPS": "AJ", "Indicato_1": "EN.ATM.CO2E.PC", "LAT": 40.43, "2011": 3.647379, "POP2005": 8352021}, "244": {"REAL": 0, "INDEX": 0, "Indicator": "CO2 emissions (metric tons per capita)", "UN": 752, "NAME": "Sweden", "AREA": 41033, "1965": 8.097994, "REGION": 150, "LON": 15.27, "SUBREGION": 154, "1990": 6.069368, "ISO3": "SWE", "ISO2": "SE", "FIPS": "SW", "Indicato_1": "EN.ATM.CO2E.PC", "LAT": 62.011, "2011": 5.518421, "POP2005": 9038049}, "108": {"REAL": 0.65285512839, "INDEX": 0.94433960548, "Indicator": "CO2 emissions (metric tons per capita)", "UN": 466, "NAME": "Mali", "AREA": 122019, "1965": 0.036845, "REGION": 2, "LON": -3.524, "SUBREGION": 11, "1990": 0.052951, "ISO3": "MLI", "ISO2": "ML", "FIPS": "ML", "Indicato_1": "EN.ATM.CO2E.PC", "LAT": 17.35, "2011": 0.086736, "POP2005": 1161109}, "241": {"REAL": 0, "INDEX": 0, "Indicator": "CO2 emissions (metric tons per capita)", "UN": 428, "NAME": "Latvia", "AREA": 6205, "1965": 0, "REGION": 150, "LON": 25.641, "SUBREGION": 154, "1990": 0, "ISO3": "LVA", "ISO2": "LV", "FIPS": "LG", "Indicato_1": "EN.ATM.CO2E.PC", "LAT": 56.858, "2011": 3.786801, "POP2005": 2301793}, "240": {"REAL": 0, "INDEX": 0, "Indicator": "CO2 emissions (metric tons per capita)", "UN": 442, "NAME": "Luxembourg", "AREA": 0, "1965": 36.813804, "REGION": 150, "LON": 6.088, "SUBREGION": 155, "1990": 26.197659, "ISO3": "LUX", "ISO2": "LU", "FIPS": "LU", "Indicato_1": "EN.ATM.CO2E.PC", "LAT": 49.771, "2011": 20.897812, "POP2005": 456613}, "243": {"REAL": 0, "INDEX": 0, "Indicator": "CO2 emissions (metric tons per capita)", "UN": 705, "NAME": "Slovenia", "AREA": 2014, "1965": 0, "REGION": 150, "LON": 14.827, "SUBREGION": 39, "1990": 0, "ISO3": "SVN", "ISO2": "SI", "FIPS": "SI", "Indicato_1": "EN.ATM.CO2E.PC", "LAT": 46.124, "2011": 7.50426, "POP2005": 1999425}, "101": {"REAL": 0.044927135496, "INDEX": 0.064986046008, "Indicator": "CO2 emissions (metric tons per capita)", "UN": 703, "NAME": "Slovakia", "AREA": 4808, "1965": 0, "REGION": 150, "LON": 19.491, "SUBREGION": 151, "1990": 0, "ISO3": "SVK", "ISO2": "SK", "FIPS": "LO", "Indicato_1": "EN.ATM.CO2E.PC", "LAT": 48.707, "2011": 6.367546, "POP2005": 5386995}, "107": {"REAL": 0.30457878074, "INDEX": 0.44056605077, "Indicator": "CO2 emissions (metric tons per capita)", "UN": 807, "NAME": "The former Yugoslav Republic of Macedonia", "AREA": 2543, "1965": 0, "REGION": 150, "LON": 21.698, "SUBREGION": 39, "1990": 0, "ISO3": "MKD", "ISO2": "MK", "FIPS": "MK", "Indicato_1": "EN.ATM.CO2E.PC", "LAT": 41.6, "2011": 4.437581, "POP2005": 2033655}, "105": {"REAL": 2.5613422379, "INDEX": 3.7049213727, "Indicator": "CO2 emissions (metric tons per capita)", "UN": 496, "NAME": "Mongolia", "AREA": 156650, "1965": 1.768715, "REGION": 142, "LON": 102.876, "SUBREGION": 30, "1990": 4.598526, "ISO3": "MNG", "ISO2": "MN", "FIPS": "MG", "Indicato_1": "EN.ATM.CO2E.PC", "LAT": 46.056, "2011": 6.927361, "POP2005": 2580704}, "224": {"REAL": -999.99, "INDEX": -999.99, "Indicator": "CO2 emissions (metric tons per capita)", "UN": 674, "NAME": "San Marino", "AREA": 0, "1965": 0, "REGION": 150, "LON": 12.46, "SUBREGION": 39, "1990": 0, "ISO3": "SMR", "ISO2": "SM", "FIPS": "SM", "Indicato_1": "EN.ATM.CO2E.PC", "LAT": 43.942, "2011": 0, "POP2005": 30214}, "30": {"REAL": 7.9509714746, "INDEX": 6, "Indicator": "CO2 emissions (metric tons per capita)", "UN": 156, "NAME": "China", "AREA": 932743, "1965": 0.665524, "REGION": 142, "LON": 106.514, "SUBREGION": 30, "1990": 2.167703, "ISO3": "CHN", "ISO2": "CN", "FIPS": "CH", "Indicato_1": "EN.ATM.CO2E.PC", "LAT": 33.42, "2011": 6.710302, "POP2005": 1312978855}, "36": {"REAL": 2.714641025, "INDEX": 3.9266644667, "Indicator": "CO2 emissions (metric tons per capita)", "UN": 148, "NAME": "Chad", "AREA": 125920, "1965": 0.032119, "REGION": 2, "LON": 18.665, "SUBREGION": 17, "1990": 0.024646, "ISO3": "TCD", "ISO2": "TD", "FIPS": "CD", "Indicato_1": "EN.ATM.CO2E.PC", "LAT": 15.361, "2011": 0.044623, "POP2005": 10145609}, "35": {"REAL": 0.072372204665, "INDEX": 0.10468469379, "Indicator": "CO2 emissions (metric tons per capita)", "UN": 120, "NAME": "Cameroon", "AREA": 46540, "1965": 0.052056, "REGION": 2, "LON": 12.277, "SUBREGION": 17, "1990": 0.144002, "ISO3": "CMR", "ISO2": "CM", "FIPS": "CM", "Indicato_1": "EN.ATM.CO2E.PC", "LAT": 5.133, "2011": 0.26762, "POP2005": 17795149}, "63": {"REAL": 0.0057176459293, "INDEX": 0.0082704405102, "Indicator": "CO2 emissions (metric tons per capita)", "UN": 250, "NAME": "France", "AREA": 55010, "1965": 7.044729, "REGION": 150, "LON": 2.55, "SUBREGION": 155, "1990": 6.431055, "ISO3": "FRA", "ISO2": "FR", "FIPS": "FR", "Indicato_1": "EN.ATM.CO2E.PC", "LAT": 46.565, "2011": 5.185411, "POP2005": 60990544}, "65": {"REAL": -999.99, "INDEX": -999.99, "Indicator": "CO2 emissions (metric tons per capita)", "UN": 266, "NAME": "Gabon", "AREA": 25767, "1965": 0.406754, "REGION": 2, "LON": 11.797, "SUBREGION": 17, "1990": 5.116818, "ISO3": "GAB", "ISO2": "GA", "FIPS": "GB", "Indicato_1": "EN.ATM.CO2E.PC", "LAT": -0.591, "2011": 1.403276, "POP2005": 1290693}, "179": {"REAL": 0.72919351834, "INDEX": 1.0547612931, "Indicator": "CO2 emissions (metric tons per capita)", "UN": 724, "NAME": "Spain", "AREA": 49904, "1965": 2.22561, "REGION": 150, "LON": -3.649, "SUBREGION": 39, "1990": 5.626635, "ISO3": "ESP", "ISO2": "ES", "FIPS": "SP", "Indicato_1": "EN.ATM.CO2E.PC", "LAT": 40.227, "2011": 5.790764, "POP2005": 43397491}, "178": {"REAL": 4.6036893405, "INDEX": 6, "Indicator": "CO2 emissions (metric tons per capita)", "UN": 706, "NAME": "Somalia", "AREA": 62734, "1965": 0.043007, "REGION": 2, "LON": 48.316, "SUBREGION": 14, "1990": 0.0029, "ISO3": "SOM", "ISO2": "SO", "FIPS": "SO", "Indicato_1": "EN.ATM.CO2E.PC", "LAT": 9.774, "2011": 0.058107, "POP2005": 8196395}, "182": {"REAL": 0.50777223443, "INDEX": 0.73448060785, "Indicator": "CO2 emissions (metric tons per capita)", "UN": 760, "NAME": "Syrian Arab Republic", "AREA": 18378, "1965": 0.681322, "REGION": 142, "LON": 38.506, "SUBREGION": 145, "1990": 3.007746, "ISO3": "SYR", "ISO2": "SY", "FIPS": "SY", "Indicato_1": "EN.ATM.CO2E.PC", "LAT": 35.013, "2011": 2.625979, "POP2005": 18893881}, "183": {"REAL": 0.0038878841243, "INDEX": 0.0056237330465, "Indicator": "CO2 emissions (metric tons per capita)", "UN": 756, "NAME": "Switzerland", "AREA": 4000, "1965": 5.185732, "REGION": 150, "LON": 7.908, "SUBREGION": 155, "1990": 6.345085, "ISO3": "CHE", "ISO2": "CH", "FIPS": "SZ", "Indicato_1": "EN.ATM.CO2E.PC", "LAT": 46.861, "2011": 4.62523, "POP2005": 7424389}, "181": {"REAL": 2.7654155819, "INDEX": 4.0001086705, "Indicator": "CO2 emissions (metric tons per capita)", "UN": 736, "NAME": "Sudan", "AREA": 237600, "1965": 0.202255, "REGION": 2, "LON": 30.05, "SUBREGION": 15, "1990": 0.215697, "ISO3": "SDN", "ISO2": "SD", "FIPS": "SU", "Indicato_1": "EN.ATM.CO2E.PC", "LAT": 13.832, "2011": 0.354151, "POP2005": 36899747}, "186": {"REAL": 5.3780858697, "INDEX": 6, "Indicator": "CO2 emissions (metric tons per capita)", "UN": 762, "NAME": "Tajikistan", "AREA": 13996, "1965": 0, "REGION": 142, "LON": 69.42, "SUBREGION": 143, "1990": 0, "ISO3": "TJK", "ISO2": "TJ", "FIPS": "TI", "Indicato_1": "EN.ATM.CO2E.PC", "LAT": 38.665, "2011": 0.356149, "POP2005": 6550213}, "189": {"REAL": 0.50847788498, "INDEX": 0.7355013148, "Indicator": "CO2 emissions (metric tons per capita)", "UN": 768, "NAME": "Togo", "AREA": 5439, "1965": 0.077262, "REGION": 2, "LON": 1.081, "SUBREGION": 11, "1990": 0.204281, "ISO3": "TGO", "ISO2": "TG", "FIPS": "TO", "Indicato_1": "EN.ATM.CO2E.PC", "LAT": 8.799, "2011": 0.324077, "POP2005": 6238572}, "196": {"REAL": 0.85120346991, "INDEX": 1.2312458216, "Indicator": "CO2 emissions (metric tons per capita)", "UN": 800, "NAME": "Uganda", "AREA": 19710, "1965": 0.078242, "REGION": 2, "LON": 32.386, "SUBREGION": 14, "1990": 0.045799, "ISO3": "UGA", "ISO2": "UG", "FIPS": "UG", "Indicato_1": "EN.ATM.CO2E.PC", "LAT": 1.28, "2011": 0.108086, "POP2005": 28947181}, "99": {"REAL": 0.021958551527, "INDEX": 0.031762528904, "Indicator": "CO2 emissions (metric tons per capita)", "UN": 112, "NAME": "Belarus", "AREA": 20748, "1965": 0, "REGION": 150, "LON": 28.047, "SUBREGION": 151, "1990": 0, "ISO3": "BLR", "ISO2": "BY", "FIPS": "BO", "Indicato_1": "EN.ATM.CO2E.PC", "LAT": 53.54, "2011": 6.68251, "POP2005": 9795287}, "98": {"REAL": 0.023082325177, "INDEX": 0.033388041088, "Indicator": "CO2 emissions (metric tons per capita)", "UN": 422, "NAME": "Lebanon", "AREA": 1023, "1965": 1.586077, "REGION": 142, "LON": 35.888, "SUBREGION": 145, "1990": 3.367159, "ISO3": "LBN", "ISO2": "LB", "FIPS": "LE", "Indicato_1": "EN.ATM.CO2E.PC", "LAT": 33.92, "2011": 4.67454, "POP2005": 401074}, "169": {"REAL": 0.0056604911406, "INDEX": 0.0081877674512, "Indicator": "CO2 emissions (metric tons per capita)", "UN": 682, "NAME": "Saudi Arabia", "AREA": 214969, "1965": 0.875213, "REGION": 142, "LON": 44.585, "SUBREGION": 145, "1990": 13.448544, "ISO3": "SAU", "ISO2": "SA", "FIPS": "SA", "Indicato_1": "EN.ATM.CO2E.PC", "LAT": 24.023, "2011": 18.740823, "POP2005": 2361236}, "228": {"REAL": -999.99, "INDEX": -999.99, "Indicator": "", "UN": 336, "NAME": "Holy See (Vatican City)", "AREA": 0, "1965": 0, "REGION": 150, "LON": 12.451, "SUBREGION": 39, "1990": 0, "ISO3": "VAT", "ISO2": "VA", "FIPS": "VT", "Indicato_1": "", "LAT": 41.904, "2011": 0, "POP2005": 783}, "227": {"REAL": 0.01066057434, "INDEX": 0.01542027033, "Indicator": "CO2 emissions (metric tons per capita)", "UN": 688, "NAME": "Serbia", "AREA": 0, "1965": 0, "REGION": 150, "LON": 20.806, "SUBREGION": 39, "1990": 0, "ISO3": "SRB", "ISO2": "RS", "FIPS": "RB", "Indicato_1": "EN.ATM.CO2E.PC", "LAT": 44.032, "2011": 6.799115, "POP2005": 9863026}, "90": {"REAL": 6.4778532309, "INDEX": 6, "Indicator": "CO2 emissions (metric tons per capita)", "UN": 404, "NAME": "Kenya", "AREA": 56914, "1965": 0.259649, "REGION": 2, "LON": 37.858, "SUBREGION": 14, "1990": 0.248362, "ISO3": "KEN", "ISO2": "KE", "FIPS": "KE", "Indicato_1": "EN.ATM.CO2E.PC", "LAT": 0.53, "2011": 0.322831, "POP2005": 35598952}, "167": {"REAL": 0.13270049736, "INDEX": 0.19194815186, "Indicator": "CO2 emissions (metric tons per capita)", "UN": 643, "NAME": "Russia", "AREA": 1638094, "1965": 0, "REGION": 150, "LON": 96.689, "SUBREGION": 151, "1990": 0, "ISO3": "RUS", "ISO2": "RU", "FIPS": "RS", "Indicato_1": "EN.ATM.CO2E.PC", "LAT": 61.988, "2011": 12.647328, "POP2005": 143953092}, "95": {"REAL": 0.00056707320617, "INDEX": 0.0008202580703, "Indicator": "CO2 emissions (metric tons per capita)", "UN": 414, "NAME": "Kuwait", "AREA": 1782, "1965": 73.446912, "REGION": 142, "LON": 47.376, "SUBREGION": 145, "1990": 23.455352, "ISO3": "KWT", "ISO2": "KW", "FIPS": "KU", "Indicato_1": "EN.ATM.CO2E.PC", "LAT": 29.476, "2011": 29.132225, "POP2005": 2700}, "163": {"REAL": 0.0849709879, "INDEX": 0.12290853775, "Indicator": "CO2 emissions (metric tons per capita)", "UN": 642, "NAME": "Romania", "AREA": 22987, "1965": 4.13645, "REGION": 150, "LON": 24.969, "SUBREGION": 151, "1990": 6.846949, "ISO3": "ROU", "ISO2": "RO", "FIPS": "RO", "Indicato_1": "EN.ATM.CO2E.PC", "LAT": 45.844, "2011": 4.21056, "POP2005": 21627557}, "16": {"REAL": 0.49322849858, "INDEX": 0.71344343562, "Indicator": "CO2 emissions (metric tons per capita)", "UN": 70, "NAME": "Bosnia and Herzegovina", "AREA": 5120, "1965": 0, "REGION": 150, "LON": 17.786, "SUBREGION": 39, "1990": 0, "ISO3": "BIH", "ISO2": "BA", "FIPS": "BK", "Indicato_1": "EN.ATM.CO2E.PC", "LAT": 44.169, "2011": 6.185335, "POP2005": 3915238}, "19": {"REAL": 0.85827479926, "INDEX": 1.2414743334, "Indicator": "CO2 emissions (metric tons per capita)", "UN": 204, "NAME": "Benin", "AREA": 11062, "1965": 0.057115, "REGION": 2, "LON": 2.469, "SUBREGION": 11, "1990": 0.142977, "ISO3": "BEN", "ISO2": "BJ", "FIPS": "BN", "Indicato_1": "EN.ATM.CO2E.PC", "LAT": 10.541, "2011": 0.509941, "POP2005": 8490301}, "89": {"REAL": 0.36947346945, "INDEX": 0.5344346934, "Indicator": "CO2 emissions (metric tons per capita)", "UN": 400, "NAME": "Jordan", "AREA": 8824, "1965": 1.261344, "REGION": 142, "LON": 36.319, "SUBREGION": 145, "1990": 3.281791, "ISO3": "JOR", "ISO2": "JO", "FIPS": "JO", "Indicato_1": "EN.ATM.CO2E.PC", "LAT": 30.703, "2011": 3.601147, "POP2005": 5544066}, "31": {"REAL": 1.0592901689, "INDEX": 1.5322383431, "Indicator": "CO2 emissions (metric tons per capita)", "UN": 4, "NAME": "Afghanistan", "AREA": 65209, "1965": 0.103269, "REGION": 142, "LON": 65.216, "SUBREGION": 34, "1990": 0.228187, "ISO3": "AFG", "ISO2": "AF", "FIPS": "AF", "Indicato_1": "EN.ATM.CO2E.PC", "LAT": 33.677, "2011": 0.420933, "POP2005": 25067407}, "155": {"REAL": 1.0553423911, "INDEX": 1.5265279752, "Indicator": "CO2 emissions (metric tons per capita)", "UN": 586, "NAME": "Pakistan", "AREA": 77088, "1965": 0.385999, "REGION": 142, "LON": 69.386, "SUBREGION": 34, "1990": 0.617202, "ISO3": "PAK", "ISO2": "PK", "FIPS": "PK", "Indicato_1": "EN.ATM.CO2E.PC", "LAT": 29.967, "2011": 0.927832, "POP2005": 158080591}, "156": {"REAL": 0.032017102158, "INDEX": 0.046311986083, "Indicator": "CO2 emissions (metric tons per capita)", "UN": 616, "NAME": "Poland", "AREA": 30629, "1965": 7.862051, "REGION": 150, "LON": 19.401, "SUBREGION": 151, "1990": 9.666499, "ISO3": "POL", "ISO2": "PL", "FIPS": "PL", "Indicato_1": "EN.ATM.CO2E.PC", "LAT": 52.125, "2011": 8.335787, "POP2005": 38195558}, "238": {"REAL": 0, "INDEX": 0, "Indicator": "CO2 emissions (metric tons per capita)", "UN": 434, "NAME": "Libyan Arab Jamahiriya", "AREA": 175954, "1965": 0.593443, "REGION": 2, "LON": 18.023, "SUBREGION": 15, "1990": 8.634188, "ISO3": "LBY", "ISO2": "LY", "FIPS": "LY", "Indicato_1": "EN.ATM.CO2E.PC", "LAT": 27.044, "2011": 6.393422, "POP2005": 5918217}, "239": {"REAL": 0, "INDEX": 0, "Indicator": "CO2 emissions (metric tons per capita)", "UN": 440, "NAME": "Lithuania", "AREA": 6268, "1965": 0, "REGION": 150, "LON": 23.897, "SUBREGION": 154, "1990": 0, "ISO3": "LTU", "ISO2": "LT", "FIPS": "LH", "Indicato_1": "EN.ATM.CO2E.PC", "LAT": 55.336, "2011": 4.537559, "POP2005": 3425077}, "236": {"REAL": 0, "INDEX": 0, "Indicator": "CO2 emissions (metric tons per capita)", "UN": 208, "NAME": "Denmark", "AREA": 4243, "1965": 9.316576, "REGION": 150, "LON": 9.264, "SUBREGION": 154, "1990": 9.770699, "ISO3": "DNK", "ISO2": "DK", "FIPS": "DA", "Indicato_1": "EN.ATM.CO2E.PC", "LAT": 56.058, "2011": 7.248329, "POP2005": 5416945}, "237": {"REAL": 0, "INDEX": 0, "Indicator": "CO2 emissions (metric tons per capita)", "UN": 233, "NAME": "Estonia", "AREA": 4239, "1965": 0, "REGION": 150, "LON": 25.793, "SUBREGION": 154, "1990": 0, "ISO3": "EST", "ISO2": "EE", "FIPS": "EN", "Indicato_1": "EN.ATM.CO2E.PC", "LAT": 58.674, "2011": 14.049883, "POP2005": 1344312}, "49": {"REAL": 0.01221347652, "INDEX": 0.017666506851, "Indicator": "CO2 emissions (metric tons per capita)", "UN": 818, "NAME": "Egypt", "AREA": 99545, "1965": 0.861547, "REGION": 2, "LON": 29.872, "SUBREGION": 15, "1990": 1.348032, "ISO3": "EGY", "ISO2": "EG", "FIPS": "EG", "Indicato_1": "EN.ATM.CO2E.PC", "LAT": 26.494, "2011": 2.780995, "POP2005": 72849793}, "44": {"REAL": 0.0026781550233, "INDEX": 0.0038738883224, "Indicator": "CO2 emissions (metric tons per capita)", "UN": 196, "NAME": "Cyprus", "AREA": 924, "1965": 1.98192, "REGION": 142, "LON": 33.219, "SUBREGION": 145, "1990": 6.070123, "ISO3": "CYP", "ISO2": "CY", "FIPS": "CY", "Indicato_1": "EN.ATM.CO2E.PC", "LAT": 35.043, "2011": 6.736166, "POP2005": 836321}, "40": {"REAL": 0.18249850803, "INDEX": 0.26397980437, "Indicator": "CO2 emissions (metric tons per capita)", "UN": 140, "NAME": "Central African Republic", "AREA": 62298, "1965": 0.053376, "REGION": 2, "LON": 20.483, "SUBREGION": 17, "1990": 0.067981, "ISO3": "CAF", "ISO2": "CF", "FIPS": "CT", "Indicato_1": "EN.ATM.CO2E.PC", "LAT": 6.571, "2011": 0.064475, "POP2005": 4191429}, "5": {"REAL": 0.47823110092, "INDEX": 0.69175005225, "Indicator": "CO2 emissions (metric tons per capita)", "UN": 51, "NAME": "Armenia", "AREA": 2820, "1965": 0, "REGION": 142, "LON": 44.563, "SUBREGION": 145, "1990": 0, "ISO3": "ARM", "ISO2": "AM", "FIPS": "AM", "Indicato_1": "EN.ATM.CO2E.PC", "LAT": 40.534, "2011": 1.673836, "POP2005": 3017661}, "146": {"REAL": 0.0047378608108, "INDEX": 0.0068532043548, "Indicator": "CO2 emissions (metric tons per capita)", "UN": 528, "NAME": "Netherlands", "AREA": 3388, "1965": 8.174054, "REGION": 150, "LON": 5.389, "SUBREGION": 155, "1990": 10.594475, "ISO3": "NLD", "ISO2": "NL", "FIPS": "NL", "Indicato_1": "EN.ATM.CO2E.PC", "LAT": 52.077, "2011": 10.06449, "POP2005": 1632769}, "200": {"REAL": 1.2500368274, "INDEX": 1.8081489033, "Indicator": "CO2 emissions (metric tons per capita)", "UN": 854, "NAME": "Burkina Faso", "AREA": 27360, "1965": 0.019841, "REGION": 2, "LON": -1.74, "SUBREGION": 11, "1990": 0.066589, "ISO3": "BFA", "ISO2": "BF", "FIPS": "UV", "Indicato_1": "EN.ATM.CO2E.PC", "LAT": 12.278, "2011": 0.120817, "POP2005": 13933363}, "202": {"REAL": 0.12369400136, "INDEX": 0.17892046698, "Indicator": "CO2 emissions (metric tons per capita)", "UN": 860, "NAME": "Uzbekistan", "AREA": 42540, "1965": 0, "REGION": 142, "LON": 63.17, "SUBREGION": 143, "1990": 0, "ISO3": "UZB", "ISO2": "UZ", "FIPS": "UZ", "Indicato_1": "EN.ATM.CO2E.PC", "LAT": 41.75, "2011": 3.914921, "POP2005": 26593123}, "148": {"REAL": 0.7037965143, "INDEX": 1.0180251234, "Indicator": "CO2 emissions (metric tons per capita)", "UN": 524, "NAME": "Nepal", "AREA": 14300, "1965": 0.017205, "REGION": 142, "LON": 83.939, "SUBREGION": 34, "1990": 0.035028, "ISO3": "NPL", "ISO2": "NP", "FIPS": "NP", "Indicato_1": "EN.ATM.CO2E.PC", "LAT": 28.253, "2011": 0.159609, "POP2005": 27093656}, "72": {"REAL": 0.0065831386618, "INDEX": 0.0095223554145, "Indicator": "CO2 emissions (metric tons per capita)", "UN": 300, "NAME": "Greece", "AREA": 12890, "1965": 1.991254, "REGION": 150, "LON": 21.766, "SUBREGION": 39, "1990": 7.313131, "ISO3": "GRC", "ISO2": "GR", "FIPS": "GR", "Indicato_1": "EN.ATM.CO2E.PC", "LAT": 39.666, "2011": 7.556058, "POP2005": 11099737}, "70": {"REAL": 0.032824573685, "INDEX": 0.047479974678, "Indicator": "CO2 emissions (metric tons per capita)", "UN": 276, "NAME": "Germany", "AREA": 34895, "1965": 0, "REGION": 150, "LON": 9.851, "SUBREGION": 155, "1990": 0, "ISO3": "DEU", "ISO2": "DE", "FIPS": "GM", "Indicato_1": "EN.ATM.CO2E.PC", "LAT": 51.11, "2011": 8.917833, "POP2005": 82652369}, "79": {"REAL": 0.088105351287, "INDEX": 0.12744232075, "Indicator": "CO2 emissions (metric tons per capita)", "UN": 348, "NAME": "Hungary", "AREA": 9210, "1965": 6.040037, "REGION": 150, "LON": 19.134, "SUBREGION": 151, "1990": 6.710469, "ISO3": "HUN", "ISO2": "HU", "FIPS": "HU", "Indicato_1": "EN.ATM.CO2E.PC", "LAT": 47.07, "2011": 4.86299, "POP2005": 10086387}, "78": {"REAL": 0.0024942886886, "INDEX": 0.003607929989, "Indicator": "CO2 emissions (metric tons per capita)", "UN": 191, "NAME": "Croatia", "AREA": 5592, "1965": 0, "REGION": 150, "LON": 16.693, "SUBREGION": 39, "1990": 0, "ISO3": "HRV", "ISO2": "HR", "FIPS": "HR", "Indicato_1": "EN.ATM.CO2E.PC", "LAT": 45.723, "2011": 4.80153, "POP2005": 455149}}, "grid": ["         !!#######$$$%%%%%%%%%%%%%%%%%%%%%%%%%%%%%%%%%%%%%%%%%%%", "         !########$$$%%%%%   %%%%%%%%%%%%%%%%%%%%%%%%%%%%%%%%%%%", "        !!######  $$$%%%%%% %%%%%%%%%%%%%%%%%%%%%%%%%%%%%%%%%%%%", "        !!###### $$$$%%%%%%%%%%%%%%%%%%%%%%%%%%%%%%%%%%%%%%%%%%%", "       !!####### $$$$$%%%%%%%%%%%%%%%%%%%%%%%%%%%%%%%%%%%%%%%%%%", "      !!!######$$$$$$$%%%%%%%%%%%%%%%%%%%%%%%%%%%%%%%%%%%%%%%%%%", "     !!!!##### $$$$$$$%%%%%%%%%%%%%%%%%%%%%%%%%%%%%%%%%%%%%%%%%%", "    !!!!!####  $$$$$$$%%%%%%%%%%%%%%%%%%%%%%%%%%%%%%%%%%%%%%%%%%", "   !!!!!!####  $$$$$$%%%%%%%%%%%%%%%%%%%%%%%%%%%%%%%%%%%%%%%%%%%", "   !!!!!!####  $$$$$%%%%%%%%%%%%%%%%%%%%%%%%%%%%%%%%%%%%%%%%%%%%", "    !!!!!#####&$$$$ %%%%%%%%%%%%%%%%%%%%%%%%%%%%%%%%%%%%%%%%%%%%", "    !!!!######&  ''''%%%%%%%%%%%%%%%%%%%%%%%%%%%%%%%%%%%%%%%%%%%", "    !!!!#####   ''''%%%%%%%%%%%%%%%%%%%%%%%%%%%%%%%%%%%%%%%%%%%%", "     !! ######  ((('%%%%%%%%%%%%%%%%%%%%%%%%%%%%%%%%%%%%%%%%%%%%", "      )))##### ((((((%%%%%%%%%%%%%%%%%%%%%%%%%%%%%%%%%%%%%%%%%%%", "      )))####  ((((((%%%%%%%%%%%%%%%%%%%%%%%%%%%%%%%%%%%%%%%%%%%", "      )))##    ****(+%%%%%%%%%%%%%%%%%%%%%%%%%%%%%%%%%%%%%%%%%%%", "      ))))  ,,%%***+++%%%%%%%%%%%%%%%%%%%%%%%%%%%-%%%%%%%%%%%%%%", ".     ////,,,,,,***+++%%%%%%%%%%%%%%%%%%%%%%%%-----%%%%%%%%%%%%%", ".  000////,,,,,,,,++++%%%%%%%%%%%%%%%%%%%%%%%-------%--%%%%%%%%%", ".. 000////,,,,,,,+++++111%%%%%%%%%%%%%%%%%%%------------%%%%%%%%", "..000//////,,,,,,11111111%%%%%%%%%%%%%%%%%%%%-----------%%%%%%%%", ".2330//////,,,,,,111111111%%%%%%%%%%---%%%%%-------------%%%%%%%", "22234/////555,,,1111111111111%%%%%%--------------------------%%%", "222222/////566661111111111111%%%%%----------------------------%7", "22222/8///99666:111;111111111%%%%%%---------------------------<7", "22222888==9>:::?????;1111111%%%%%%%%--------------------------<<", "22228888==>>:@@?????11 111 %%%%%%%%%  ---------------------<<<<<", "22222=====AAAA@@@???11  111%%%%%%%  ----BBB----------------<<<<<", "22222C===D AAE@@@????       %%%%%%% ----BBBBB-B-----------<<<<<<", "FF2 2  ====AAG@@@HHHH        I%%%%%  ---BBBBBBBB----------<<<<<<", "FFF   22=J==  K@LHHMM  MMM    MII%%  NNNBBNBBBBB--BOOOOOO-<<<<<<", "FF    == ==== KLLPPMMMMMMMMMMMMMQIRR  NNNNNNBBBBBBBBBOOO<<<<<<<<", "F FF  ==   ===PPPPMMMMMMMMMMMMMMMQSR  NNNNNNNBBBBBTTT<<<<<<<<<<<", "FF    =  = ==  PPPPMMMMMMMMMMMMMSSSS  NNNNNNNNBBBTTTTT<<<<<<<<<<", "      UU ===   PPPPMMMMMMMMMMMMMMSSS  NNSNNNNNNBBTTTTT<<<<<<<<<<", "VVVVVVUU       PPPPPMMMMMMMMMWWXXSSSSSSSSSSNNNNYYYYTZZZ<<<<<<<<<", "VVVVVVUUU        PPP   [[ WWWWXXXXSSSSSSSSSSNNYYYYYZZZZZ<<<<<<<<", "VVVVVUUU               [ ]WWWWXXXSSSSSSSSSSSYYYYYYZZZZ^^^<<<<<<<", "VVVVVVUU___    __        WWWXXXXXXSSSSSSSSSSYYYYYZZZZZ^^^<<<<<<<", "VVVVVVV_____  _____`  `  abbbbXXXXXSSSSSSSSSYYYYZZZZZZ^^^<<<<<<<", "VVVVVVV___________```````ccbbbbXXXXSSSSSSSSSSYYZZZZZZZ^^^^d<<<<<", "VVVVVVV___________```````bbbbbbbbbe SSSSSSSSZZZZZZZZZ^^^^dddd<<<", "VVVVVVV___________```````bbbbbbbbbb SSSSSSSSZZZZZZZZ^^^^^^ddddd^", "VVVVVVV___________```````bbbbbbbbbbb  SSSSSSSZZZZZZ^^^^^^^^^ddd^", "VVVVVVV___________``````` bbbbbbbbbbb  ffSSSZZZZZZZ^^^^^^^^^^^^^", "VVVVVVV___________```````` bbbbbbbbbbffff       ZZZ^^^^^^^^^^^^^", "VVVVVVVVg_________````````  bbbbbbbbbfffhhh      ^^^^^^^^^^^^^^^", "iVVVVVggggggj_____kkkkkkkkk bbbbbbbbbbbbhhh      ^^^^^^^^^^^^^^^", "iiVVVgggggggjjj___kkkkkkkkk bbbbbbbbbbbbhhh       ^ ^^^^^^^^^^^ ", "iiigggggggggjjjjj_kkkkkkkkk  bbbbbbbllbhhh          ^^^^^^^^^   ", "iiigggggggggjjjjjkkkkkkkkkkk  blbbllllhhh           ^^^^^^^^    ", "iiigggggggggjjjjjkkkkkkkkkkmm lllllllll             ^^^^^^^     ", "nggggggggggjjjjjkkkkkkkkkkkommllllllll               ^^^^^      ", "nngppgggppjjjjjjkkkkkkkkkkkooolllll                  ^^^^^      ", "nngppppppppjjjjjkkkkkkkkkkoooooll   qll              ^^^^^      ", "nnrppppppppjjjjjkkkkkkkkkkooooqqqqqqq              ^^ ^^^       ", "ssppppppppjjjjjttkkkkkkkkooooooqqqqqq                 ^^^u      ", "ssppppppppvjtttttkkkkkkkkoooooooqqqq                ^  ^ uu     ", "sspppppppvvtttttttkkkkkkkooooooooqqq                w    uu     ", "x   pppvvvtttttttttkkkkkkkooooooqqq                 w           ", "    ppyvvvvtttzttzzzkk{{{|||||qqqqq                 w           ", "       y}}vt~zzzzzzzzz{{{{|||qqqqq                  w           ", "     \u007f }}}}~~zzzzzzzz{{{{||||qqq                                "]}