{"keys": ["208", "", "12", "13", "41", "235", "120", "34", "78", "48", "90", "173", "216", "15", "241", "1", "75", "177", "79", "225", "158", "47", "109", "55", "188", "38", "212", "11", "127", "213", "70", "193", "39", "164", "77", "157", "59", "21", "49"], "data": {"216": {"REAL": -999.99, "INDEX": -999.99, "NAME": "United States Virgin Islands", "AREA": 35, "REGION": 19, "LON": -64.785, "SUBREGION": 29, "ISO3": "VIR", "ISO2": "VI", "FIPS": "VQ", "UN": 850, "LAT": 17.741, "POP2005": 111408}, "212": {"REAL": 21.95772, "INDEX": 4.42338054424, "NAME": "Saint Vincent and the Grenadines", "AREA": 39, "REGION": 19, "LON": -61.194, "SUBREGION": 29, "ISO3": "VCT", "ISO2": "VC", "FIPS": "VC", "UN": 670, "LAT": 13.248, "POP2005": 119137}, "213": {"REAL": 3.67944, "INDEX": 0.741222827766, "NAME": "Venezuela", "AREA": 88205, "REGION": 19, "LON": -66.166, "SUBREGION": 5, "ISO3": "VEN", "ISO2": "VE", "FIPS": "VE", "UN": 862, "LAT": 7.125, "POP2005": 26725573}, "157": {"REAL": 68.21855, "INDEX": 6, "NAME": "Suriname", "AREA": 15600, "REGION": 19, "LON": -55.912, "SUBREGION": 5, "ISO3": "SUR", "ISO2": "SR", "FIPS": "NS", "UN": 740, "LAT": 4.127, "POP2005": 452468}, "158": {"REAL": 1.461811, "INDEX": 0.294481682832, "NAME": "Nicaragua", "AREA": 12140, "REGION": 19, "LON": -85.034, "SUBREGION": 13, "ISO3": "NIC", "ISO2": "NI", "FIPS": "NU", "UN": 558, "LAT": 12.84, "POP2005": 5462539}, "70": {"REAL": 21.74678, "INDEX": 4.38088670189, "NAME": "Grenada", "AREA": 34, "REGION": 19, "LON": -61.678, "SUBREGION": 29, "ISO3": "GRD", "ISO2": "GD", "FIPS": "GJ", "UN": 308, "LAT": 12.118, "POP2005": 105237}, "193": {"REAL": 7.457944, "INDEX": 1.50240208863, "NAME": "Trinidad and Tobago", "AREA": 513, "REGION": 19, "LON": -61.253, "SUBREGION": 29, "ISO3": "TTO", "ISO2": "TT", "FIPS": "TD", "UN": 780, "LAT": 10.468, "POP2005": 1323722}, "90": {"REAL": 5.845192, "INDEX": 1.17751335613, "NAME": "Jamaica", "AREA": 1083, "REGION": 19, "LON": -77.32, "SUBREGION": 29, "ISO3": "JAM", "ISO2": "JM", "FIPS": "JM", "UN": 388, "LAT": 18.151, "POP2005": 2682469}, "177": {"REAL": 22.11966, "INDEX": 4.45600334138, "NAME": "Saint Kitts and Nevis", "AREA": 36, "REGION": 19, "LON": -62.769, "SUBREGION": 29, "ISO3": "KNA", "ISO2": "KN", "FIPS": "SC", "UN": 659, "LAT": 17.34, "POP2005": 49138}, "235": {"REAL": -999.99, "INDEX": -999.99, "NAME": "Turks and Caicos Islands", "AREA": 0, "REGION": 19, "LON": -71.95, "SUBREGION": 29, "ISO3": "TCA", "ISO2": "TC", "FIPS": "TK", "UN": 796, "LAT": 21.902, "POP2005": 24459}, "173": {"REAL": 11.30101, "INDEX": 2.27658735808, "NAME": "Puerto Rico", "AREA": 887, "REGION": 19, "LON": -66.466, "SUBREGION": 29, "ISO3": "PRI", "ISO2": "PR", "FIPS": "RQ", "UN": 630, "LAT": 18.221, "POP2005": 3946779}, "21": {"REAL": 4.878794, "INDEX": 0.982832573643, "NAME": "Brazil", "AREA": 845942, "REGION": 19, "LON": -53.089, "SUBREGION": 5, "ISO3": "BRA", "ISO2": "BR", "FIPS": "BR", "UN": 76, "LAT": -10.772, "POP2005": 186830759}, "48": {"REAL": 2.983391, "INDEX": 0.601003824862, "NAME": "Dominican Republic", "AREA": 4838, "REGION": 19, "LON": -70.729, "SUBREGION": 29, "ISO3": "DOM", "ISO2": "DO", "FIPS": "DR", "UN": 214, "LAT": 19.015, "POP2005": 9469601}, "49": {"REAL": 7.301979, "INDEX": 1.47098295465, "NAME": "Ecuador", "AREA": 27684, "REGION": 19, "LON": -78.497, "SUBREGION": 5, "ISO3": "ECU", "ISO2": "EC", "FIPS": "EC", "UN": 218, "LAT": -1.385, "POP2005": 13060993}, "47": {"REAL": 10.43414, "INDEX": 2.10195648145, "NAME": "Dominica", "AREA": 75, "REGION": 19, "LON": -61.356, "SUBREGION": 29, "ISO3": "DMA", "ISO2": "DM", "FIPS": "DO", "UN": 212, "LAT": 15.475, "POP2005": 67827}, "41": {"REAL": 10.03804, "INDEX": 2.02216217523, "NAME": "Cuba", "AREA": 10982, "REGION": 19, "LON": -77.781, "SUBREGION": 29, "ISO3": "CUB", "ISO2": "CU", "FIPS": "CU", "UN": 192, "LAT": 21.297, "POP2005": 11259905}, "1": {"REAL": 32.30729, "INDEX": 6, "NAME": "Antigua and Barbuda", "AREA": 44, "REGION": 19, "LON": -61.783, "SUBREGION": 29, "ISO3": "ATG", "ISO2": "AG", "FIPS": "AC", "UN": 28, "LAT": 17.078, "POP2005": 83039}, "188": {"REAL": 8.024293, "INDEX": 1.61649303923, "NAME": "Saint Lucia", "AREA": 61, "REGION": 19, "LON": -60.969, "SUBREGION": 29, "ISO3": "LCA", "ISO2": "LC", "FIPS": "ST", "UN": 662, "LAT": 13.898, "POP2005": 16124}, "208": {"REAL": 4.102634, "INDEX": 0.826475217633, "NAME": "United States", "AREA": 915896, "REGION": 19, "LON": -98.606, "SUBREGION": 21, "ISO3": "USA", "ISO2": "US", "FIPS": "US", "UN": 840, "LAT": 39.622, "POP2005": 299846449}, "39": {"REAL": 0.8397314, "INDEX": 0.169163808316, "NAME": "Costa Rica", "AREA": 5106, "REGION": 19, "LON": -83.946, "SUBREGION": 13, "ISO3": "CRI", "ISO2": "CR", "FIPS": "CS", "UN": 188, "LAT": 9.971, "POP2005": 4327228}, "120": {"REAL": 2.712069, "INDEX": 0.546346034526, "NAME": "Mexico", "AREA": 190869, "REGION": 19, "LON": -102.535, "SUBREGION": 13, "ISO3": "MEX", "ISO2": "MX", "FIPS": "MX", "UN": 484, "LAT": 23.951, "POP2005": 104266392}, "75": {"REAL": 0.3095247, "INDEX": 0.0623537205111, "NAME": "Guatemala", "AREA": 10843, "REGION": 19, "LON": -90.398, "SUBREGION": 13, "ISO3": "GTM", "ISO2": "GT", "FIPS": "GT", "UN": 320, "LAT": 15.256, "POP2005": 12709564}, "109": {"REAL": -999.99, "INDEX": -999.99, "NAME": "Martinique", "AREA": 106, "REGION": 19, "LON": -61.021, "SUBREGION": 29, "ISO3": "MTQ", "ISO2": "MQ", "FIPS": "MB", "UN": 474, "LAT": 14.653, "POP2005": 395896}, "241": {"REAL": -999.99, "INDEX": -999.99, "NAME": "Saint Barthelemy", "AREA": 0, "REGION": 19, "LON": -63.043, "SUBREGION": 29, "ISO3": "BLM", "ISO2": "BL", "FIPS": "TB", "UN": 652, "LAT": 18.04, "POP2005": 0}, "127": {"REAL": -999.99, "INDEX": -999.99, "NAME": "Aruba", "AREA": 0, "REGION": 19, "LON": -69.977, "SUBREGION": 29, "ISO3": "ABW", "ISO2": "AW", "FIPS": "AA", "UN": 533, "LAT": 12.517, "POP2005": 102897}, "164": {"REAL": 3.95295, "INDEX": 0.796321390488, "NAME": "Panama", "AREA": 7443, "REGION": 19, "LON": -80.92, "SUBREGION": 13, "ISO3": "PAN", "ISO2": "PA", "FIPS": "PM", "UN": 591, "LAT": 8.384, "POP2005": 3231502}, "59": {"REAL": -999.99, "INDEX": -999.99, "NAME": "French Guiana", "AREA": 8815, "REGION": 19, "LON": -53.241, "SUBREGION": 5, "ISO3": "GUF", "ISO2": "GF", "FIPS": "FG", "UN": 254, "LAT": 3.924, "POP2005": 192099}, "225": {"REAL": -999.99, "INDEX": -999.99, "NAME": "Guadeloupe", "AREA": 169, "REGION": 19, "LON": -61.441, "SUBREGION": 29, "ISO3": "GLP", "ISO2": "GP", "FIPS": "GP", "UN": 312, "LAT": 16.286, "POP2005": 438403}, "79": {"REAL": 2.165212, "INDEX": 0.436181745416, "NAME": "Honduras", "AREA": 11189, "REGION": 19, "LON": -86.863, "SUBREGION": 13, "ISO3": "HND", "ISO2": "HN", "FIPS": "HO", "UN": 340, "LAT": 14.819, "POP2005": 683411}, "78": {"REAL": 5.396142, "INDEX": 1.08705227759, "NAME": "Haiti", "AREA": 2756, "REGION": 19, "LON": -72.278, "SUBREGION": 29, "ISO3": "HTI", "ISO2": "HT", "FIPS": "HA", "UN": 332, "LAT": 19.142, "POP2005": 9296291}, "11": {"REAL": 15.69373, "INDEX": 3.16150037201, "NAME": "Barbados", "AREA": 43, "REGION": 19, "LON": -59.559, "SUBREGION": 29, "ISO3": "BRB", "ISO2": "BB", "FIPS": "BB", "UN": 52, "LAT": 13.153, "POP2005": 291933}, "77": {"REAL": 31.30113, "INDEX": 6, "NAME": "Guyana", "AREA": 19685, "REGION": 19, "LON": -58.974, "SUBREGION": 5, "ISO3": "GUY", "ISO2": "GY", "FIPS": "GY", "UN": 328, "LAT": 4.792, "POP2005": 739472}, "13": {"REAL": 46.53529, "INDEX": 6, "NAME": "Bahamas", "AREA": 1001, "REGION": 19, "LON": -78.014, "SUBREGION": 29, "ISO3": "BHS", "ISO2": "BS", "FIPS": "BF", "UN": 44, "LAT": 24.628, "POP2005": 323295}, "12": {"REAL": -999.99, "INDEX": -999.99, "NAME": "Bermuda", "AREA": 5, "REGION": 19, "LON": -64.709, "SUBREGION": 21, "ISO3": "BMU", "ISO2": "BM", "FIPS": "BD", "UN": 60, "LAT": 32.336, "POP2005": 64174}, "15": {"REAL": 15.78399, "INDEX": 3.17968324017, "NAME": "Belize", "AREA": 2281, "REGION": 19, "LON": -88.602, "SUBREGION": 13, "ISO3": "BLZ", "ISO2": "BZ", "FIPS": "BH", "UN": 84, "LAT": 17.219, "POP2005": 275546}, "38": {"REAL": 2.004576, "INDEX": 0.403821638943, "NAME": "Colombia", "AREA": 103870, "REGION": 19, "LON": -73.076, "SUBREGION": 5, "ISO3": "COL", "ISO2": "CO", "FIPS": "CO", "UN": 170, "LAT": 3.9, "POP2005": 4494579}, "55": {"REAL": 1.723826, "INDEX": 0.347264578929, "NAME": "El Salvador", "AREA": 2072, "REGION": 19, "LON": -88.866, "SUBREGION": 13, "ISO3": "SLV", "ISO2": "SV", "FIPS": "ES", "UN": 222, "LAT": 13.736, "POP2005": 6668356}, "34": {"REAL": -999.99, "INDEX": -999.99, "NAME": "Cayman Islands", "AREA": 26, "REGION": 19, "LON": -81.198, "SUBREGION": 29, "ISO3": "CYM", "ISO2": "KY", "FIPS": "CJ", "UN": 136, "LAT": 19.314, "POP2005": 45591}}, "grid": ["                          !!!!!!!!!!!!!!!!!!!!!!!!!!!!!!!!!!!!!!", "                        !!!!!!!!!!!!!!!!!!!!!!!!!!!!!!!!!!!!!!!!", "                       !!!!!!!!!!!!!!!!!!!!!!!!!!!!!!!!!!!!!!!!!", "                       !!!!!!!!!!!!!!!!!!!!!!!!!!!!!!!!!!!!!!!!!", "                      !!!!!!!!!!!!!!!!!!!!!!!!!!!!!!!!!!!!!!!!!!", "                      !!!!!!!!!!!!!!!!!!!!!!!!!!!!!!!!!!!!!!!!!!", "                     !!!!!!!!!!!!!!!!!!!!!!!!!!!!!!!!!!!!!!!!!!!", "                     !!!!!!!!!!!!!!!!!!!!!!!!!!!!!!!!!!!!!!!!!!!", "                     !!!!!!!!!!!!!!!!!!!!!!!!!!!!!!!!!!!!!!!!!!!", "                     !!!!!!!!!!!!!!!!!!!!!!!!!!!!!!!!!!!!!!!!!!!", "                     !!!!!!!!!!!!!!!!!!!!!!!!!!!!!!!!!!!!!!!!!!!", "                    !!!!!!!!!!!!!!!!!!!!!!!!!!!!!!!!!!!!!!!!!!!!", "                  !!!!!!!!!!!!!!!!!!!!!!!!!!!!!!!!!!!!!!!!!!!!!!", "                 !!!!!!!!!!!!!!!!!!!!!!!!!!!!!!!!!!!!!!!!!!!!!!!", "                !!!!!!!!!!!!!!!!!!!!!!!!!!!!!!!!!!!!!!!!!!!!!!!!", "               !!!!!!!!!!!!!!!!!!!!!#!!!!!!!!!!!!!!!!!!!!!!!!!!!", "              !!!!!!!!!!!!!!!!!!!!!!!!!!!!!!!!!!!!!!!!!!!!!!!!!!", "             !!!!!!!!!!!!!!!!!!!!!!!!!!!!!!!!!!!!!!!!!!!!!!!!!!!", "             !!!!!!!!!!!!!!!!!!!!!!!!!!!!!!!!!!!!!!!!!!!!!!!!!!!", "    !!       !!!!!!!!!!!!!!!!!!!!!!!!!!!!!!!!!!!!!!!!!!!!!!!!!!!", "  !!!!! !    !!!!!!!!!!!!!!!!!!!!!!!!!!!!!!!!!!!!!!!!!!!!!!!!!!!", "! !!!!!!!!    !!!!!!!!!!!!!!!!!!!!!!!!!!!!!!!!!!!!!!!!!!!!!!!!!!", "!!!!!!!!!!    !!!!!!!!!!!!!!!!!!!!!!!!!!!!!!!!!!!!!!!!!!!!!!!!!!", "!!!!!!!!!!    !!!!!!!!!!!!!!!!!!!!!!!!!!!!!!!!!!!!!!!!!!!!!!!!!!", "!!!!!!!!!!!    !!$!!!!!!!!!!!!!!!!!!!!!!!!!!!!!!!!!!!!!!!!!!!!!!", "!!!!!!!!!!!    !$!$!!!!!!!!!!!!!!!!!!!!!!!!!!!!!!!!!!!!!!!!!!!!!", "!!!!!!!!!!!!   !!$$$!!!!!!!!!!!!!!!!!!!!!!!!!!!!!!!!!!!!!!!!!!!!", "!!!!!!!!!!!!! !!!$$!!!!!!!!!!!!!!!!!!!!!!!!!!!!!!!!!!!!!!!!!!!!!", "!!!!!!!!!!!  !!!!$!$$!!!!!!!!!!!!!!!!!!!!!!!!!!!!!!!!!!!!!!!!!!!", "!!!!!!!!!!!!!!!!!$!!$$$!!!!!!!!!!!!!!!!!!!!!!!!!!!!!!!!!!!!!!!!!", "!!!!!!!!!!%%%%%!!!!!!$!$!!!!!!!!!!!!!!!!!!!!!!!!!!!!!!!!!!!!!!!!", "!!!!!!!!%%%%%%%%%%!!!!$$$!!!!!!!!!!!!!!!!!!!!!!!!!!!!!!!!!!!!!!!", "!!!!!!!%%!%!%%%%%%%!!!!!!&&!!!!!!!!!!!!!!!!!!!!!!!!!!!!!!!!!!!!!", "'''''!!!!!!!!!!%%%%%%!!$$!!!!!!!!!!!!!!!!!!!!!!!!!!!!!!!!!!!!!!!", "'''''!!!!!!!!!!!%%%%%%%!!!!!!!!!!!!!!!!!!!!!!!!!!!!!!!!!!!!!!!!!", "'''''!!!!!!!!!(!!%%%% %!)))**!!!!!!!!!!!!!!!!!!!!!!!!!!!!!!!!!!!", "''''!!!!!!!!(!!!!!!!!!!!!))****!!!!!!!!!!!!!!!!!!!!!!!!!!!!!!!!!", "'''''!!!!!!!!!!!!++!!!)))))*****,,,,-!!!!!!!!!!!!!!!!!!!!!!!!!!!", "''.'!!!!!!!!!!!!!+++!!!)!!)*!!!!,,,,-!/!0!!!!!!!!!!!!!!!!!!!!!!!", "11..!!!!!!!!!!!!!!!!!!!!!!!!!!!!!!!!!!!20!!!!!!!!!!!!!!!!!!!!!!!", "11.!!33!!!!!!!!!!!!!!!!!!!!!!!!!!!!!!!!!44!!!!!!!!!!!!!!!!!!!!!!", "111333333!!!!!!!!!!!!!!!!!!!!!!!!!!!!!!!44!!!!!!!!!!!!!!!!!!!!!!", "13333333355!!!!!!!!!!!!!!!!!!!!!!!!!!!!!!6!!!!!!!!!!!!!!!!!!!!!!", "13333335555!!!!!!!!!!!!!!!!!!!!!!!!!!!!!!7!!!!!!!!!!!!!!!!!!!!!!", "1833355555!!!!!!!!!!!!!!!!!!!!!!!!!!!!!!!9!!!!!!!!!!!!!!!!!!!!!!", "!!85555555!!:!!!!!!!!!!!!!!!!!!!!!!!!!!!!;!<!!!!!!!!!!!!!!!!!!!!", "!!!!5555555!:!!!!!!!!!!!!!:!=!!!!!!!!!!!!!!!!!!!!!!!!!!!!!!!!!!!", "!!!!!55555!!!!!!!!!!!!!!::>!>!!!!>>!>!!!?!!!!!!!!!!!!!!!!!!!!!!!", "!!!!!!5555!!!!!!!!!!!::::>>>>>>>!!!>>>!!!!@!!!!!!!!!!!!!!!!!!!!!", "!!!!!!AAAA!!!!!!!!!!!:::>>>>>>>>>>>!>>>>@@!!!!!!!!!!!!!!!!!!!!!!", "!!!!!!AAAAB!!!!B!!!!::::>>!>>>>>>>>>>>>>>>!!!!!!!!!!!!!!!!!!!!!!", "!!!!!!!!!ABBBBBBBBB:::::>>>>>>>>>>>>>>>>>>!!!!!!!!!!!!!!!!!!!!!!", "!!!!!!!!!ABBBBB!BBB::::::>>>>>>>>>>>>>>>>>>>!!!!!!!!!!!!!!!!!!!!", "!!!!!!!!!!!!BBB!!BB::::::>>>>>>>>>>>>>>>>>>CC!!!!!!!!!!!!!!!!!!!", "!!!!!!!!!!!!!!!!!!::::::::>>>>>>>>>>>>>>>>>CCC!!!!!!!!!!!!!!!!!!", "!!!!!!!!!!!!!!!!!!:::::::::::>>>>>>>>>>>>>CCCCC!!!!!!!!!!!!!!!!!", "!!!!!!!!!!!!!!!!!!::::::::::::::>>>>>>>>>>CCCCCDDDDDEE!!!!!!!!!!", "!!!!!!!!!!!!!!!!!!::::::::::::::>>>>>>>>>>>CCCDDDDDEEEE!!!!!!!!!", "!!!!!!!!!!!!!!!!!!::::::::::::::>>>>>>>>>FFCCDDDDDDEEEEF!!!!!!!!", "!!!!!!!!!!!!!!!!!!::::::::::::::>>>>>FFFFFFCCCDDDDDDEEEF!!!!!!!!", "!!!!!!!!!!!!!!!!::::::::::::::::>>>>>>FFFFFCCCCDDDDDEEFF!!!!!!!!", "!!!!!!!!!!!!!!!!:::::::::::::::::>>>>>>FFFFCCCCDDFFEEFFFF!!!!!!!", "!!!!!!!!!!!!!!!!G::::::::::::FFFF>>>>FFFFFFFCCFFFFFFFFFFFF!!!!!!", "!!!!!!!!!!!!!!GGGGG:::::::::::FFFF>>FFFFFFFFFFFFFFFFFFFFFF!!!!!!"]}