{"keys": ["", "41", "235", "120", "13", "208", "78", "48", "34", "15", "90", "75", "79", "158", "55", "38", "127", "213", "226", "39", "164", "49", "21"], "data": {"213": {"REAL": 3.67944, "INDEX": 0.741222827766, "NAME": "Venezuela", "AREA": 88205, "REGION": 19, "LON": -66.166, "SUBREGION": 5, "ISO3": "VEN", "ISO2": "VE", "FIPS": "VE", "UN": 862, "LAT": 7.125, "POP2005": 26725573}, "158": {"REAL": 1.461811, "INDEX": 0.294481682832, "NAME": "Nicaragua", "AREA": 12140, "REGION": 19, "LON": -85.034, "SUBREGION": 13, "ISO3": "NIC", "ISO2": "NI", "FIPS": "NU", "UN": 558, "LAT": 12.84, "POP2005": 5462539}, "226": {"REAL": -999.99, "INDEX": -999.99, "NAME": "Netherlands Antilles", "AREA": 80, "REGION": 19, "LON": -68.87, "SUBREGION": 29, "ISO3": "ANT", "ISO2": "AN", "FIPS": "NT", "UN": 530, "LAT": 12.123, "POP2005": 186392}, "235": {"REAL": -999.99, "INDEX": -999.99, "NAME": "Turks and Caicos Islands", "AREA": 0, "REGION": 19, "LON": -71.95, "SUBREGION": 29, "ISO3": "TCA", "ISO2": "TC", "FIPS": "TK", "UN": 796, "LAT": 21.902, "POP2005": 24459}, "21": {"REAL": 4.878794, "INDEX": 0.982832573643, "NAME": "Brazil", "AREA": 845942, "REGION": 19, "LON": -53.089, "SUBREGION": 5, "ISO3": "BRA", "ISO2": "BR", "FIPS": "BR", "UN": 76, "LAT": -10.772, "POP2005": 186830759}, "48": {"REAL": 2.983391, "INDEX": 0.601003824862, "NAME": "Dominican Republic", "AREA": 4838, "REGION": 19, "LON": -70.729, "SUBREGION": 29, "ISO3": "DOM", "ISO2": "DO", "FIPS": "DR", "UN": 214, "LAT": 19.015, "POP2005": 9469601}, "49": {"REAL": 7.301979, "INDEX": 1.47098295465, "NAME": "Ecuador", "AREA": 27684, "REGION": 19, "LON": -78.497, "SUBREGION": 5, "ISO3": "ECU", "ISO2": "EC", "FIPS": "EC", "UN": 218, "LAT": -1.385, "POP2005": 13060993}, "41": {"REAL": 10.03804, "INDEX": 2.02216217523, "NAME": "Cuba", "AREA": 10982, "REGION": 19, "LON": -77.781, "SUBREGION": 29, "ISO3": "CUB", "ISO2": "CU", "FIPS": "CU", "UN": 192, "LAT": 21.297, "POP2005": 11259905}, "208": {"REAL": 4.102634, "INDEX": 0.826475217633, "NAME": "United States", "AREA": 915896, "REGION": 19, "LON": -98.606, "SUBREGION": 21, "ISO3": "USA", "ISO2": "US", "FIPS": "US", "UN": 840, "LAT": 39.622, "POP2005": 299846449}, "39": {"REAL": 0.8397314, "INDEX": 0.169163808316, "NAME": "Costa Rica", "AREA": 5106, "REGION": 19, "LON": -83.946, "SUBREGION": 13, "ISO3": "CRI", "ISO2": "CR", "FIPS": "CS", "UN": 188, "LAT": 9.971, "POP2005": 4327228}, "120": {"REAL": 2.712069, "INDEX": 0.546346034526, "NAME": "Mexico", "AREA": 190869, "REGION": 19, "LON": -102.535, "SUBREGION": 13, "ISO3": "MEX", "ISO2": "MX", "FIPS": "MX", "UN": 484, "LAT": 23.951, "POP2005": 104266392}, "75": {"REAL": 0.3095247, "INDEX": 0.0623537205111, "NAME": "Guatemala", "AREA": 10843, "REGION": 19, "LON": -90.398, "SUBREGION": 13, "ISO3": "GTM", "ISO2": "GT", "FIPS": "GT", "UN": 320, "LAT": 15.256, "POP2005": 12709564}, "127": {"REAL": -999.99, "INDEX": -999.99, "NAME": "Aruba", "AREA": 0, "REGION": 19, "LON": -69.977, "SUBREGION": 29, "ISO3": "ABW", "ISO2": "AW", "FIPS": "AA", "UN": 533, "LAT": 12.517, "POP2005": 102897}, "164": {"REAL": 3.95295, "INDEX": 0.796321390488, "NAME": "Panama", "AREA": 7443, "REGION": 19, "LON": -80.92, "SUBREGION": 13, "ISO3": "PAN", "ISO2": "PA", "FIPS": "PM", "UN": 591, "LAT": 8.384, "POP2005": 3231502}, "90": {"REAL": 5.845192, "INDEX": 1.17751335613, "NAME": "Jamaica", "AREA": 1083, "REGION": 19, "LON": -77.32, "SUBREGION": 29, "ISO3": "JAM", "ISO2": "JM", "FIPS": "JM", "UN": 388, "LAT": 18.151, "POP2005": 2682469}, "79": {"REAL": 2.165212, "INDEX": 0.436181745416, "NAME": "Honduras", "AREA": 11189, "REGION": 19, "LON": -86.863, "SUBREGION": 13, "ISO3": "HND", "ISO2": "HN", "FIPS": "HO", "UN": 340, "LAT": 14.819, "POP2005": 683411}, "78": {"REAL": 5.396142, "INDEX": 1.08705227759, "NAME": "Haiti", "AREA": 2756, "REGION": 19, "LON": -72.278, "SUBREGION": 29, "ISO3": "HTI", "ISO2": "HT", "FIPS": "HA", "UN": 332, "LAT": 19.142, "POP2005": 9296291}, "13": {"REAL": 46.53529, "INDEX": 6, "NAME": "Bahamas", "AREA": 1001, "REGION": 19, "LON": -78.014, "SUBREGION": 29, "ISO3": "BHS", "ISO2": "BS", "FIPS": "BF", "UN": 44, "LAT": 24.628, "POP2005": 323295}, "38": {"REAL": 2.004576, "INDEX": 0.403821638943, "NAME": "Colombia", "AREA": 103870, "REGION": 19, "LON": -73.076, "SUBREGION": 5, "ISO3": "COL", "ISO2": "CO", "FIPS": "CO", "UN": 170, "LAT": 3.9, "POP2005": 4494579}, "15": {"REAL": 15.78399, "INDEX": 3.17968324017, "NAME": "Belize", "AREA": 2281, "REGION": 19, "LON": -88.602, "SUBREGION": 13, "ISO3": "BLZ", "ISO2": "BZ", "FIPS": "BH", "UN": 84, "LAT": 17.219, "POP2005": 275546}, "55": {"REAL": 1.723826, "INDEX": 0.347264578929, "NAME": "El Salvador", "AREA": 2072, "REGION": 19, "LON": -88.866, "SUBREGION": 13, "ISO3": "SLV", "ISO2": "SV", "FIPS": "ES", "UN": 222, "LAT": 13.736, "POP2005": 6668356}, "34": {"REAL": -999.99, "INDEX": -999.99, "NAME": "Cayman Islands", "AREA": 26, "REGION": 19, "LON": -81.198, "SUBREGION": 29, "ISO3": "CYM", "ISO2": "KY", "FIPS": "CJ", "UN": 136, "LAT": 19.314, "POP2005": 45591}}, "grid": ["              !!!!  !      !!!!!!!!!              ###           ", "    $$$$$          !!!  !     !!!!!!!!          % #             ", "$$$$$$$$$$                       !!!!!!!       %%               ", "$$$$$$$$$$                     ! !!!!!!!!!    %%%               ", "$$$$$$$$$$                       !!!!!!!!!!!                    ", "$$$$$$$$                            !!!!!!!!!!                  ", "$$$$$$$$                           !!!!!!!&!   '''  (((         ", "$$$$$$$$                    ))                 ''''''(((((      ", "$$$$$$$$                 )                       ''''(((((((    ", "$$$$$$$                                         '''''((((((((   ", "$$$$$$$ $                                   '''' ''''(((((((((  ", "$$$$$*$$                         ++++++     '''''''''((((   ((  ", "$$$$**$                           ++++++      '     ((          ", ",,,****                                              (          ", ",,,****                                                         ", ",,,***                                                          ", ",,,***                                                          ", ",,,**     -                                                     ", ",,,,, --   ------                                               ", ",,,,--------------                                              ", ",,,-----------------                                            ", ",,----------------..                                            ", ",,------------......                                            ", ",,/----------.......                                            ", ",///-------........                                             ", "//////---..........                                             ", "   ////--..........                                             ", "       ............                                             ", "        ...........                                 0    1      ", "         .......... .                              000  22  333 ", "          .........                              00022  22      ", "           .......                              0002    22222   ", "            ......                         0 00000222 22222222  ", "            4444...                       000000022222222222222 ", "            4444444                      00000000222222222222222", "            44444444                     00000000222 22222222222", "             44444444                    00000002222  2222222222", "                4444555      55555      0000000022222 2222222222", "                  445555  5555555555   0000000000222222222222222", "                  445555555555  55555000000000000222222222222222", "                  44555555555  5 5555000000000000022222222222222", "                    5   5555     5555000000000000022222222222222", "                       555555    5555000000000000022222222222222", "                       55 555     500000000000000022222222222222", "                                   00000000000000002222222222222", "                                    0000000000000000000002222222", "                                    0000000000000000000000222222", "                                    0000000000000000000000000000", "                                    0000000000000000000000000000", "                                    0000000000000000000000000002", "                                    0000000000000000000000000002", "                                    0000000000000000000000000002", "                                   00000000000000000000000000002", "                                    0000000000000000000000000000", "                                    0000000000000000000000000000", "                                   00000000000000000000000000000", "                                  000000000000000000000000000002", "                                00000000000000000000000000000000", "                                00000000000000000000000000000000", "                               000000000000000000000000000000000", "                               660000000000000000000000000777777", "                             66666600000000000000000000000007777", "                            666666660000000000000000000000007777", "                            666666666666600000000000000007777777"]}